{
  "type": "FeatureCollection",
  "generator": "overpass-turbo",
  "timestamp": "",
  "features": [
    {
      "type": "Feature",
      "properties": {
        
        "highway": "bus_stop",
        "name": "via Josef Noldin - Josef Noldin Str.",
        "name:de": "Josef Noldin Str.",
        "name:it": "via Josef Noldin",
        
        "route_ref": "INT_LAIV"
      },
      "geometry": {
        "type": "Point",
        "coordinates": [
          11.3364389,
          46.4272928
        ]
      },
      "id": "node/18446744073709550717"
    },
    {
      "type": "Feature",
      "properties": {
        
        "highway": "bus_stop",
        "name": "via Josef Noldin - Josef Noldin Str.",
        "name:de": "Josef Noldin Str.",
        "name:it": "via Josef Noldin",
        
        "route_ref": "INT_LAIV"
      },
      "geometry": {
        "type": "Point",
        "coordinates": [
          11.3364783,
          46.4272389
        ]
      },
      "id": "node/18446744073709550718"
    },
    {
      "type": "Feature",
      "properties": {
        
        "highway": "bus_stop",
        "name": "Ponte Adige Staz. 2 - Sigmundskron Bhf 2",
        "name:de": "Sigmundskron Bhf 2",
        "name:it": "Ponte Adige Staz. 2",
        
        "route_ref": "9"
      },
      "geometry": {
        "type": "Point",
        "coordinates": [
          11.2980872,
          46.4858594
        ]
      },
      "id": "node/18446744073709550719"
    },
    {
      "type": "Feature",
      "properties": {
        
        "highway": "bus_stop",
        "name": "Terlan Bahnhof - Terlano Stazione",
        "name:de": "Terlan Bahnhof",
        "name:it": "Terlano Stazione",
        
        
        "route_ref": "NALLES"
      },
      "geometry": {
        "type": "Point",
        "coordinates": [
          11.2492181,
          46.5283672
        ]
      },
      "id": "node/18446744073709550720"
    },
    {
      "type": "Feature",
      "properties": {
        
        "highway": "bus_stop",
        "name": "Ackpfeil - Acquaviva",
        "name:de": "Ackpfeil",
        "name:it": "Acquaviva",
        
        
        "route_ref": "248"
      },
      "geometry": {
        "type": "Point",
        "coordinates": [
          11.1602744,
          46.5890092
        ]
      },
      "id": "node/18446744073709550721"
    },
    {
      "type": "Feature",
      "properties": {
        
        "highway": "bus_stop",
        "name": "Weingartnerstr. 4 - via Weingartner 4",
        "name:de": "Weingartnerstr. 4",
        "name:it": "via Weingartner 4",
        
        
        "route_ref": "11;12;13"
      },
      "geometry": {
        "type": "Point",
        "coordinates": [
          11.1382817,
          46.6791214
        ]
      },
      "id": "node/18446744073709550722"
    },
    {
      "type": "Feature",
      "properties": {
        
        "highway": "bus_stop",
        "name": "Weingartnerstr. 4 - via Weingartner 4",
        "name:de": "Weingartnerstr. 4",
        "name:it": "via Weingartner 4",
        
        
        "route_ref": "11;12;13;NIGHTSH"
      },
      "geometry": {
        "type": "Point",
        "coordinates": [
          11.1378914,
          46.6791542
        ]
      },
      "id": "node/18446744073709550723"
    },
    {
      "type": "Feature",
      "properties": {
        
        "highway": "bus_stop",
        "name": "Tscherms 4 - Cermes 4",
        "name:de": "Tscherms 4",
        "name:it": "Cermes 4",
        
        
        "route_ref": "11"
      },
      "geometry": {
        "type": "Point",
        "coordinates": [
          11.1476933,
          46.6276517
        ]
      },
      "id": "node/18446744073709550724"
    },
    {
      "type": "Feature",
      "properties": {
        
        "highway": "bus_stop",
        "name": "Tscherms 4 - Cermes 4",
        "name:de": "Tscherms 4",
        "name:it": "Cermes 4",
        
        
        "route_ref": "11;NIGHTSH",
        "shelter": "yes"
      },
      "geometry": {
        "type": "Point",
        "coordinates": [
          11.1475167,
          46.6287267
        ]
      },
      "id": "node/18446744073709550725"
    },
    {
      "type": "Feature",
      "properties": {
        
        "highway": "bus_stop",
        "name": "Noerderstr. 2 - via Tramontana 2",
        "name:de": "Noerderstr. 2",
        "name:it": "via Tramontana 2",
        
        
        "route_ref": "12"
      },
      "geometry": {
        "type": "Point",
        "coordinates": [
          11.1295294,
          46.6737144
        ]
      },
      "id": "node/18446744073709550726"
    },
    {
      "type": "Feature",
      "properties": {
        
        "highway": "bus_stop",
        "name": "Noerderstr. 2 - via Tramontana 2",
        "name:de": "Noerderstr. 2",
        "name:it": "via Tramontana 2",
        
        
        "route_ref": "12;NIGHTSH"
      },
      "geometry": {
        "type": "Point",
        "coordinates": [
          11.1295511,
          46.6737967
        ]
      },
      "id": "node/18446744073709550727"
    },
    {
      "type": "Feature",
      "properties": {
        
        "bench": "yes",
        "highway": "bus_stop",
        "name": "Kellerei Str. 1 - via Cantina 1",
        "name:de": "Kellerei Str. 1",
        "name:it": "via Cantina 1",
        
        
        "route_ref": "12"
      },
      "geometry": {
        "type": "Point",
        "coordinates": [
          11.1447453,
          46.6480667
        ]
      },
      "id": "node/18446744073709550728"
    },
    {
      "type": "Feature",
      "properties": {
        
        "highway": "bus_stop",
        "name": "Kellerei Str. 1 - via Cantina 1",
        "name:de": "Kellerei Str. 1",
        "name:it": "via Cantina 1",
        
        
        "route_ref": "12;NIGHTSH"
      },
      "geometry": {
        "type": "Point",
        "coordinates": [
          11.1443636,
          46.64821
        ]
      },
      "id": "node/18446744073709550729"
    },
    {
      "type": "Feature",
      "properties": {
        
        "highway": "bus_stop",
        "name": "Kellerei Str. 2 - via Cantina 2",
        "name:de": "Kellerei Str. 2",
        "name:it": "via Cantina 2",
        
        
        "route_ref": "12"
      },
      "geometry": {
        "type": "Point",
        "coordinates": [
          11.1425928,
          46.6511467
        ]
      },
      "id": "node/18446744073709550730"
    },
    {
      "type": "Feature",
      "properties": {
        
        "highway": "bus_stop",
        "name": "Kellerei Str. 2 - via Cantina 2",
        "name:de": "Kellerei Str. 2",
        "name:it": "via Cantina 2",
        
        
        "route_ref": "12;NIGHTSH"
      },
      "geometry": {
        "type": "Point",
        "coordinates": [
          11.1429622,
          46.6506539
        ]
      },
      "id": "node/18446744073709550731"
    },
    {
      "type": "Feature",
      "properties": {
        
        "highway": "bus_stop",
        "name": "Noerderstr. 1 - via Tramontana 1",
        "name:de": "Noerderstr. 1",
        "name:it": "via Tramontana 1",
        
        
        "route_ref": "12;NIGHTSH"
      },
      "geometry": {
        "type": "Point",
        "coordinates": [
          11.1350528,
          46.6675267
        ]
      },
      "id": "node/18446744073709550732"
    },
    {
      "type": "Feature",
      "properties": {
        
        "highway": "bus_stop",
        "name": "Noerderstr. 1 - via Tramontana 1",
        "name:de": "Noerderstr. 1",
        "name:it": "via Tramontana 1",
        
        
        "route_ref": "12"
      },
      "geometry": {
        "type": "Point",
        "coordinates": [
          11.1350431,
          46.6674125
        ]
      },
      "id": "node/18446744073709550733"
    },
    {
      "type": "Feature",
      "properties": {
        
        "highway": "bus_stop",
        "name": "Vadena Birti - Pfatten Birti",
        "name:de": "Pfatten Birti",
        "name:it": "Vadena Birti",
        
        "route_ref": "VAD_LAIV"
      },
      "geometry": {
        "type": "Point",
        "coordinates": [
          11.29905,
          46.4063614
        ]
      },
      "id": "node/18446744073709550734"
    },
    {
      "type": "Feature",
      "properties": {
        
        "highway": "bus_stop",
        "name": "Vadena Comune - Pfatten Gemeinde",
        "name:de": "Pfatten Gemeinde",
        "name:it": "Vadena Comune",
        
        "route_ref": "VAD_LAIV"
      },
      "geometry": {
        "type": "Point",
        "coordinates": [
          11.3050294,
          46.4137689
        ]
      },
      "id": "node/18446744073709550735"
    },
    {
      "type": "Feature",
      "properties": {
        
        "highway": "bus_stop",
        "name": "Vadena Comune - Pfatten Gemeinde",
        "name:de": "Pfatten Gemeinde",
        "name:it": "Vadena Comune",
        
        "route_ref": "VAD_LAIV"
      },
      "geometry": {
        "type": "Point",
        "coordinates": [
          11.3048272,
          46.4131733
        ]
      },
      "id": "node/18446744073709550736"
    },
    {
      "type": "Feature",
      "properties": {
        
        "highway": "bus_stop",
        "name": "Vadena Nuova - Neu Pfatten",
        "name:de": "Neu Pfatten",
        "name:it": "Vadena Nuova",
        
        "route_ref": "VAD_LAIV"
      },
      "geometry": {
        "type": "Point",
        "coordinates": [
          11.3106092,
          46.4131911
        ]
      },
      "id": "node/18446744073709550737"
    },
    {
      "type": "Feature",
      "properties": {
        
        "highway": "bus_stop",
        "name": "Vadena Nuova - Neu Pfatten",
        "name:de": "Neu Pfatten",
        "name:it": "Vadena Nuova",
        
        "route_ref": "VAD_LAIV",
        "shelter": "yes"
      },
      "geometry": {
        "type": "Point",
        "coordinates": [
          11.3109278,
          46.4132442
        ]
      },
      "id": "node/18446744073709550738"
    },
    {
      "type": "Feature",
      "properties": {
        
        "highway": "bus_stop",
        "name": "ponte Vadena - Pfattner Bruecke",
        "name:de": "Pfattner Bruecke",
        "name:it": "ponte Vadena",
        
        "route_ref": "VAD_LAIV"
      },
      "geometry": {
        "type": "Point",
        "coordinates": [
          11.3152969,
          46.4138347
        ]
      },
      "id": "node/18446744073709550739"
    },
    {
      "type": "Feature",
      "properties": {
        
        "highway": "bus_stop",
        "name": "Hinterkofel 3",
        "name:de": "Hinterkofel 3",
        "name:it": "Hinterkofel 3",
        
        "route_ref": "ME-AV;NIGHTSH"
      },
      "geometry": {
        "type": "Point",
        "coordinates": [
          11.2267944,
          46.6172878
        ]
      },
      "id": "node/18446744073709550740"
    },
    {
      "type": "Feature",
      "properties": {
        
        "highway": "bus_stop",
        "name": "Hinterkofel 3",
        "name:de": "Hinterkofel 3",
        "name:it": "Hinterkofel 3",
        
        "route_ref": "ME-AV;NIGHTSH"
      },
      "geometry": {
        "type": "Point",
        "coordinates": [
          11.2265508,
          46.61743
        ]
      },
      "id": "node/18446744073709550741"
    },
    {
      "type": "Feature",
      "properties": {
        
        "highway": "bus_stop",
        "name": "Abzw. Falzeben - Bivio Falzeben",
        "name:de": "Abzw. Falzeben",
        "name:it": "Bivio Falzeben",
        
        
        "route_ref": "ME-AV;NIGHTSH"
      },
      "geometry": {
        "type": "Point",
        "coordinates": [
          11.2191094,
          46.6484028
        ]
      },
      "id": "node/18446744073709550742"
    },
    {
      "type": "Feature",
      "properties": {
        
        "highway": "bus_stop",
        "name": "Laberserstr. 2 - via Labers 2",
        "name:de": "Laberserstr. 2",
        "name:it": "via Labers 2",
        
        
        "route_ref": "ME-AV;NIGHTSH"
      },
      "geometry": {
        "type": "Point",
        "coordinates": [
          11.2031058,
          46.6612511
        ]
      },
      "id": "node/18446744073709550743"
    },
    {
      "type": "Feature",
      "properties": {
        
        "highway": "bus_stop",
        "name": "Laberserstr. 2 - via Labers 2",
        "name:de": "Laberserstr. 2",
        "name:it": "via Labers 2",
        
        
        "route_ref": "ME-AV;NIGHTSH"
      },
      "geometry": {
        "type": "Point",
        "coordinates": [
          11.2030631,
          46.6608908
        ]
      },
      "id": "node/18446744073709550744"
    },
    {
      "type": "Feature",
      "properties": {
        
        "highway": "bus_stop",
        "name": "Gruener Baum",
        "name:de": "Gruener Baum",
        "name:it": "Gruener Baum",
        
        "route_ref": "ME-AV;NIGHTSH",
        "shelter": "yes"
      },
      "geometry": {
        "type": "Point",
        "coordinates": [
          11.2393217,
          46.60814
        ]
      },
      "id": "node/18446744073709550745"
    },
    {
      "type": "Feature",
      "properties": {
        
        "highway": "bus_stop",
        "name": "Voeran Dorf 2 - Verano Paese 2",
        "name:de": "Voeran Dorf 2",
        "name:it": "Verano Paese 2",
        
        
        "route_ref": "ME-AV;NIGHTSH"
      },
      "geometry": {
        "type": "Point",
        "coordinates": [
          11.2320897,
          46.6040117
        ]
      },
      "id": "node/18446744073709550746"
    },
    {
      "type": "Feature",
      "properties": {
        
        "highway": "bus_stop",
        "name": "Voeran Dorf 2 - Verano Paese 2",
        "name:de": "Voeran Dorf 2",
        "name:it": "Verano Paese 2",
        
        
        "route_ref": "ME-AV;NIGHTSH"
      },
      "geometry": {
        "type": "Point",
        "coordinates": [
          11.2328664,
          46.6041308
        ]
      },
      "id": "node/18446744073709550747"
    },
    {
      "type": "Feature",
      "properties": {
        
        "bench": "yes",
        "highway": "bus_stop",
        "name": "Voeran Dorf 1 - Verano Paese 1",
        "name:de": "Voeran Dorf 1",
        "name:it": "Verano Paese 1",
        
        
        "route_ref": "ME-AV;NIGHTSH"
      },
      "geometry": {
        "type": "Point",
        "coordinates": [
          11.2264636,
          46.6059497
        ]
      },
      "id": "node/18446744073709550748"
    },
    {
      "type": "Feature",
      "properties": {
        
        "highway": "bus_stop",
        "name": "Voeran Dorf 1 - Verano Paese 1",
        "name:de": "Voeran Dorf 1",
        "name:it": "Verano Paese 1",
        
        
        "route_ref": "ME-AV;NIGHTSH",
        "shelter": "yes"
      },
      "geometry": {
        "type": "Point",
        "coordinates": [
          11.2271725,
          46.6056931
        ]
      },
      "id": "node/18446744073709550749"
    },
    {
      "type": "Feature",
      "properties": {
        
        "highway": "bus_stop",
        "name": "Hinterkofel 2",
        "name:de": "Hinterkofel 2",
        "name:it": "Hinterkofel 2",
        
        "route_ref": "ME-AV;NIGHTSH"
      },
      "geometry": {
        "type": "Point",
        "coordinates": [
          11.2210144,
          46.6149417
        ]
      },
      "id": "node/18446744073709550750"
    },
    {
      "type": "Feature",
      "properties": {
        
        "highway": "bus_stop",
        "name": "Hinterkofel 2",
        "name:de": "Hinterkofel 2",
        "name:it": "Hinterkofel 2",
        
        "route_ref": "ME-AV;NIGHTSH"
      },
      "geometry": {
        "type": "Point",
        "coordinates": [
          11.2208767,
          46.6147739
        ]
      },
      "id": "node/18446744073709550751"
    },
    {
      "type": "Feature",
      "properties": {
        
        "bench": "yes",
        "highway": "bus_stop",
        "name": "Hinterkofel 1",
        "name:de": "Hinterkofel 1",
        "name:it": "Hinterkofel 1",
        
        "route_ref": "ME-AV;NIGHTSH"
      },
      "geometry": {
        "type": "Point",
        "coordinates": [
          11.2095044,
          46.6258811
        ]
      },
      "id": "node/18446744073709550752"
    },
    {
      "type": "Feature",
      "properties": {
        
        "bench": "yes",
        "highway": "bus_stop",
        "name": "Hinterkofel 1",
        "name:de": "Hinterkofel 1",
        "name:it": "Hinterkofel 1",
        
        "route_ref": "ME-AV;NIGHTSH"
      },
      "geometry": {
        "type": "Point",
        "coordinates": [
          11.2096794,
          46.6260058
        ]
      },
      "id": "node/18446744073709550753"
    },
    {
      "type": "Feature",
      "properties": {
        
        "highway": "bus_stop",
        "name": "Voeranstr. - via Verano",
        "name:de": "Voeranstr.",
        "name:it": "via Verano",
        
        
        "route_ref": "ME-AV;NIGHTSH"
      },
      "geometry": {
        "type": "Point",
        "coordinates": [
          11.2173614,
          46.6349822
        ]
      },
      "id": "node/18446744073709550754"
    },
    {
      "type": "Feature",
      "properties": {
        
        "highway": "bus_stop",
        "name": "Voeranstr. - via Verano",
        "name:de": "Voeranstr.",
        "name:it": "via Verano",
        
        
        "route_ref": "ME-AV;NIGHTSH"
      },
      "geometry": {
        "type": "Point",
        "coordinates": [
          11.2174436,
          46.6349192
        ]
      },
      "id": "node/18446744073709550755"
    },
    {
      "type": "Feature",
      "properties": {
        
        "bench": "yes",
        "highway": "bus_stop",
        "name": "Haslachstr. 4 - via Aslago 4",
        "name:de": "Haslachstr. 4",
        "name:it": "via Aslago 4",
        
        
        "route_ref": "CROCE T"
      },
      "geometry": {
        "type": "Point",
        "coordinates": [
          11.1541639,
          46.7001275
        ]
      },
      "id": "node/18446744073709550756"
    },
    {
      "type": "Feature",
      "properties": {
        
        "highway": "bus_stop",
        "name": "Haslachstr. 3 - via Aslago 3",
        "name:de": "Haslachstr. 3",
        "name:it": "via Aslago 3",
        
        
        "route_ref": "CROCE T"
      },
      "geometry": {
        "type": "Point",
        "coordinates": [
          11.1524317,
          46.6978278
        ]
      },
      "id": "node/18446744073709550757"
    },
    {
      "type": "Feature",
      "properties": {
        
        "highway": "bus_stop",
        "name": "Seilbahn Hochmut - Funivia Muta",
        "name:de": "Seilbahn Hochmut",
        "name:it": "Funivia Muta",
        
        
        "route_ref": "CROCE T"
      },
      "geometry": {
        "type": "Point",
        "coordinates": [
          11.1528756,
          46.6964906
        ]
      },
      "id": "node/18446744073709550758"
    },
    {
      "type": "Feature",
      "properties": {
        
        "highway": "bus_stop",
        "name": "Haslachstr. 2 - via Aslago 2",
        "name:de": "Haslachstr. 2",
        "name:it": "via Aslago 2",
        
        
        "route_ref": "CROCE T"
      },
      "geometry": {
        "type": "Point",
        "coordinates": [
          11.1543253,
          46.6947308
        ]
      },
      "id": "node/18446744073709550759"
    },
    {
      "type": "Feature",
      "properties": {
        
        "highway": "bus_stop",
        "name": "Nals Feuerwehr Parkplatz - Nalles parcheggio pompieri",
        "name:de": "Nals Feuerwehr Parkplatz",
        "name:it": "Nalles parcheggio pompieri",
        
        
        "route_ref": "248;NALLES",
        "shelter": "yes"
      },
      "geometry": {
        "type": "Point",
        "coordinates": [
          11.2059736,
          46.5434144
        ]
      },
      "id": "node/18446744073709550760"
    },
    {
      "type": "Feature",
      "properties": {
        
        "highway": "bus_stop",
        "name": "Zum Hirschen",
        "name:de": "Zum Hirschen",
        "name:it": "Zum Hirschen",
        
        "route_ref": "NALLES"
      },
      "geometry": {
        "type": "Point",
        "coordinates": [
          11.2210328,
          46.5569831
        ]
      },
      "id": "node/18446744073709550761"
    },
    {
      "type": "Feature",
      "properties": {
        
        "highway": "bus_stop",
        "name": "Zum Hirschen",
        "name:de": "Zum Hirschen",
        "name:it": "Zum Hirschen",
        
        "route_ref": "NALLES"
      },
      "geometry": {
        "type": "Point",
        "coordinates": [
          11.2201622,
          46.5561928
        ]
      },
      "id": "node/18446744073709550762"
    },
    {
      "type": "Feature",
      "properties": {
        
        "highway": "bus_stop",
        "name": "Andrian St.Urban Platz - Andriano p.zza.S.Urbano",
        "name:de": "Andrian St.Urban Platz",
        "name:it": "Andriano p.zza.S.Urbano",
        
        
        "route_ref": "NALLES"
      },
      "geometry": {
        "type": "Point",
        "coordinates": [
          11.2332828,
          46.5187047
        ]
      },
      "id": "node/18446744073709550763"
    },
    {
      "type": "Feature",
      "properties": {
        
        "highway": "bus_stop",
        "name": "Siebeneich HW Zone - Settequerce Zona Artig.",
        "name:de": "Siebeneich HW Zone",
        "name:it": "Settequerce Zona Artig.",
        
        
        "route_ref": "BZ-ME;NALLES",
        "shelter": "yes"
      },
      "geometry": {
        "type": "Point",
        "coordinates": [
          11.2701778,
          46.5138781
        ]
      },
      "id": "node/18446744073709550764"
    },
    {
      "type": "Feature",
      "properties": {
        
        "highway": "bus_stop",
        "name": "Siebeneich HW Zone - Settequerce Zona Artig.",
        "name:de": "Siebeneich HW Zone",
        "name:it": "Settequerce Zona Artig.",
        
        
        "route_ref": "BZ-ME;NALLES",
        "shelter": "yes"
      },
      "geometry": {
        "type": "Point",
        "coordinates": [
          11.2691694,
          46.5142661
        ]
      },
      "id": "node/18446744073709550765"
    },
    {
      "type": "Feature",
      "properties": {
        
        "highway": "bus_stop",
        "name": "Burgstall Winkelau - Postal Winkelau",
        "name:de": "Burgstall Winkelau",
        "name:it": "Postal Winkelau",
        
        
        "route_ref": "BZ-ME;CITY LA;NIGHTSH",
        "shelter": "yes"
      },
      "geometry": {
        "type": "Point",
        "coordinates": [
          11.2004122,
          46.5967031
        ]
      },
      "id": "node/18446744073709550766"
    },
    {
      "type": "Feature",
      "properties": {
        
        "highway": "bus_stop",
        "name": "Burgstall Winkelau - Postal Winkelau",
        "name:de": "Burgstall Winkelau",
        "name:it": "Postal Winkelau",
        
        
        "route_ref": "BZ-ME;CITY LA;NIGHTSH",
        "shelter": "yes"
      },
      "geometry": {
        "type": "Point",
        "coordinates": [
          11.2003194,
          46.5967975
        ]
      },
      "id": "node/18446744073709550767"
    },
    {
      "type": "Feature",
      "properties": {
        
        "highway": "bus_stop",
        "name": "Bergstr. - vicolo al Monte",
        "name:de": "Bergstr.",
        "name:it": "vicolo al Monte",
        
        
        "route_ref": "BZ-ME;NIGHTSH",
        "shelter": "yes"
      },
      "geometry": {
        "type": "Point",
        "coordinates": [
          11.2172725,
          46.5718525
        ]
      },
      "id": "node/18446744073709550768"
    },
    {
      "type": "Feature",
      "properties": {
        
        "highway": "bus_stop",
        "name": "Bergstr. - vicolo al Monte",
        "name:de": "Bergstr.",
        "name:it": "vicolo al Monte",
        
        
        "route_ref": "BZ-ME;NIGHTSH",
        "shelter": "yes"
      },
      "geometry": {
        "type": "Point",
        "coordinates": [
          11.2172289,
          46.5718339
        ]
      },
      "id": "node/18446744073709550769"
    },
    {
      "type": "Feature",
      "properties": {
        
        "highway": "bus_stop",
        "name": "Seilbahn Moelten - Funivia Meltina",
        "name:de": "Seilbahn Moelten",
        "name:it": "Funivia Meltina",
        
        
        "route_ref": "BZ-ME;NALLES;NIGHTSH",
        "shelter": "yes"
      },
      "geometry": {
        "type": "Point",
        "coordinates": [
          11.2242642,
          46.5630647
        ]
      },
      "id": "node/18446744073709550770"
    },
    {
      "type": "Feature",
      "properties": {
        
        "highway": "bus_stop",
        "name": "Vilpian - Vilpiano",
        "name:de": "Vilpian",
        "name:it": "Vilpiano",
        
        
        "route_ref": "BZ-ME;NALLES",
        "shelter": "yes"
      },
      "geometry": {
        "type": "Point",
        "coordinates": [
          11.2238256,
          46.5613453
        ]
      },
      "id": "node/18446744073709550771"
    },
    {
      "type": "Feature",
      "properties": {
        
        "highway": "bus_stop",
        "name": "Vilpian - Vilpiano",
        "name:de": "Vilpian",
        "name:it": "Vilpiano",
        
        
        "route_ref": "BZ-ME;NALLES",
        "shelter": "yes"
      },
      "geometry": {
        "type": "Point",
        "coordinates": [
          11.2235006,
          46.5596372
        ]
      },
      "id": "node/18446744073709550772"
    },
    {
      "type": "Feature",
      "properties": {
        
        "highway": "bus_stop",
        "name": "Sportzone - Zona sportiva",
        "name:de": "Sportzone",
        "name:it": "Zona sportiva",
        
        
        "route_ref": "BZ-ME;NALLES"
      },
      "geometry": {
        "type": "Point",
        "coordinates": [
          11.2236675,
          46.5558047
        ]
      },
      "id": "node/18446744073709550773"
    },
    {
      "type": "Feature",
      "properties": {
        
        "highway": "bus_stop",
        "name": "Sportzone - Zona sportiva",
        "name:de": "Sportzone",
        "name:it": "Zona sportiva",
        
        
        "route_ref": "BZ-ME;NALLES",
        "shelter": "yes"
      },
      "geometry": {
        "type": "Point",
        "coordinates": [
          11.22418,
          46.5552114
        ]
      },
      "id": "node/18446744073709550774"
    },
    {
      "type": "Feature",
      "properties": {
        
        "highway": "bus_stop",
        "name": "Vilpian Schlemmer - Vilpiano Schlemmer",
        "name:de": "Vilpian Schlemmer",
        "name:it": "Vilpiano Schlemmer",
        
        
        "route_ref": "BZ-ME;NALLES"
      },
      "geometry": {
        "type": "Point",
        "coordinates": [
          11.2295569,
          46.5520103
        ]
      },
      "id": "node/18446744073709550775"
    },
    {
      "type": "Feature",
      "properties": {
        
        "highway": "bus_stop",
        "name": "Vilpian Schlemmer - Vilpiano Schlemmer",
        "name:de": "Vilpian Schlemmer",
        "name:it": "Vilpiano Schlemmer",
        
        
        "route_ref": "BZ-ME;NALLES",
        "shelter": "yes"
      },
      "geometry": {
        "type": "Point",
        "coordinates": [
          11.2296589,
          46.5519236
        ]
      },
      "id": "node/18446744073709550776"
    },
    {
      "type": "Feature",
      "properties": {
        
        "highway": "bus_stop",
        "name": "Terlan Weinstube - Terlano Weinstube",
        "name:de": "Terlan Weinstube",
        "name:it": "Terlano Weinstube",
        
        
        "route_ref": "BZ-ME;NALLES",
        "shelter": "yes"
      },
      "geometry": {
        "type": "Point",
        "coordinates": [
          11.2383825,
          46.5449686
        ]
      },
      "id": "node/18446744073709550777"
    },
    {
      "type": "Feature",
      "properties": {
        
        "highway": "bus_stop",
        "name": "Terlan Weinstube - Terlano Weinstube",
        "name:de": "Terlan Weinstube",
        "name:it": "Terlano Weinstube",
        
        
        "route_ref": "BZ-ME;NALLES",
        "shelter": "yes"
      },
      "geometry": {
        "type": "Point",
        "coordinates": [
          11.23842,
          46.5436083
        ]
      },
      "id": "node/18446744073709550778"
    },
    {
      "type": "Feature",
      "properties": {
        
        "highway": "bus_stop",
        "name": "Terlan Winkler Hof - Terlano Winkler Hof",
        "name:de": "Terlan Winkler Hof",
        "name:it": "Terlano Winkler Hof",
        
        
        "route_ref": "BZ-ME;NALLES"
      },
      "geometry": {
        "type": "Point",
        "coordinates": [
          11.2421528,
          46.5365275
        ]
      },
      "id": "node/18446744073709550779"
    },
    {
      "type": "Feature",
      "properties": {
        
        "highway": "bus_stop",
        "name": "Terlan Winkler Hof - Terlano Winkler Hof",
        "name:de": "Terlan Winkler Hof",
        "name:it": "Terlano Winkler Hof",
        
        
        "route_ref": "BZ-ME;NALLES"
      },
      "geometry": {
        "type": "Point",
        "coordinates": [
          11.2412006,
          46.5371497
        ]
      },
      "id": "node/18446744073709550780"
    },
    {
      "type": "Feature",
      "properties": {
        
        "highway": "bus_stop",
        "name": "Terlan Zentrum - Terlano Centro",
        "name:de": "Terlan Zentrum",
        "name:it": "Terlano Centro",
        
        
        "route_ref": "BZ-ME;NALLES",
        "shelter": "yes"
      },
      "geometry": {
        "type": "Point",
        "coordinates": [
          11.2492022,
          46.5293922
        ]
      },
      "id": "node/18446744073709550781"
    },
    {
      "type": "Feature",
      "properties": {
        
        "highway": "bus_stop",
        "name": "Terlan Zentrum - Terlano Centro",
        "name:de": "Terlan Zentrum",
        "name:it": "Terlano Centro",
        
        
        "route_ref": "BZ-ME;NALLES",
        "shelter": "yes"
      },
      "geometry": {
        "type": "Point",
        "coordinates": [
          11.2496594,
          46.5293394
        ]
      },
      "id": "node/18446744073709550782"
    },
    {
      "type": "Feature",
      "properties": {
        
        "highway": "bus_stop",
        "name": "Klaus Oberspeiser - Chiusa Oberspeiser",
        "name:de": "Klaus Oberspeiser",
        "name:it": "Chiusa Oberspeiser",
        
        
        "route_ref": "BZ-ME;NALLES",
        "shelter": "yes"
      },
      "geometry": {
        "type": "Point",
        "coordinates": [
          11.2605808,
          46.5195864
        ]
      },
      "id": "node/18446744073709550783"
    },
    {
      "type": "Feature",
      "properties": {
        
        "highway": "bus_stop",
        "name": "Klaus Oberspeiser - Chiusa Oberspeiser",
        "name:de": "Klaus Oberspeiser",
        "name:it": "Chiusa Oberspeiser",
        
        
        "route_ref": "BZ-ME;NALLES",
        "shelter": "yes"
      },
      "geometry": {
        "type": "Point",
        "coordinates": [
          11.2604872,
          46.5195972
        ]
      },
      "id": "node/18446744073709550784"
    },
    {
      "type": "Feature",
      "properties": {
        
        "highway": "bus_stop",
        "name": "Siebeneich - Settequerce",
        "name:de": "Siebeneich",
        "name:it": "Settequerce",
        
        
        "route_ref": "BZ-ME;NALLES",
        "shelter": "yes"
      },
      "geometry": {
        "type": "Point",
        "coordinates": [
          11.2743767,
          46.5109722
        ]
      },
      "id": "node/18446744073709550785"
    },
    {
      "type": "Feature",
      "properties": {
        
        "highway": "bus_stop",
        "name": "Siebeneich - Settequerce",
        "name:de": "Siebeneich",
        "name:it": "Settequerce",
        
        
        "route_ref": "BZ-ME;NALLES"
      },
      "geometry": {
        "type": "Point",
        "coordinates": [
          11.2743292,
          46.5108556
        ]
      },
      "id": "node/18446744073709550786"
    },
    {
      "type": "Feature",
      "properties": {
        
        "highway": "bus_stop",
        "name": "via Merano 94 - Meraner Str. 94",
        "name:de": "Meraner Str. 94",
        "name:it": "via Merano 94",
        
        "route_ref": "BZ-ME;NALLES"
      },
      "geometry": {
        "type": "Point",
        "coordinates": [
          11.2913169,
          46.5057811
        ]
      },
      "id": "node/18446744073709550787"
    },
    {
      "type": "Feature",
      "properties": {
        
        "highway": "bus_stop",
        "name": "via Merano 94 - Meraner Str. 94",
        "name:de": "Meraner Str. 94",
        "name:it": "via Merano 94",
        
        "route_ref": "BZ-ME;NALLES"
      },
      "geometry": {
        "type": "Point",
        "coordinates": [
          11.2921819,
          46.5054342
        ]
      },
      "id": "node/18446744073709550788"
    },
    {
      "type": "Feature",
      "properties": {
        
        "highway": "bus_stop",
        "name": "Bagni di Zolfo - Schwefelbad",
        "name:de": "Schwefelbad",
        "name:it": "Bagni di Zolfo",
        
        "route_ref": "BZ-ME;NALLES"
      },
      "geometry": {
        "type": "Point",
        "coordinates": [
          11.2956308,
          46.5039933
        ]
      },
      "id": "node/18446744073709550789"
    },
    {
      "type": "Feature",
      "properties": {
        
        "highway": "bus_stop",
        "name": "Bagni di Zolfo - Schwefelbad",
        "name:de": "Schwefelbad",
        "name:it": "Bagni di Zolfo",
        
        "route_ref": "BZ-ME;NALLES"
      },
      "geometry": {
        "type": "Point",
        "coordinates": [
          11.2957058,
          46.5038428
        ]
      },
      "id": "node/18446744073709550790"
    },
    {
      "type": "Feature",
      "properties": {
        
        "highway": "bus_stop",
        "name": "S. Maurizio Moosb. - Moritzing Moosb.",
        "name:de": "Moritzing Moosb.",
        "name:it": "S. Maurizio Moosb.",
        
        "route_ref": "BZ-ME;NALLES"
      },
      "geometry": {
        "type": "Point",
        "coordinates": [
          11.2998656,
          46.5010217
        ]
      },
      "id": "node/18446744073709550791"
    },
    {
      "type": "Feature",
      "properties": {
        
        "highway": "bus_stop",
        "name": "S. Maurizio Moosb. - Moritzing Moosb.",
        "name:de": "Moritzing Moosb.",
        "name:it": "S. Maurizio Moosb.",
        
        "route_ref": "BZ-ME;NALLES"
      },
      "geometry": {
        "type": "Point",
        "coordinates": [
          11.3001583,
          46.5007539
        ]
      },
      "id": "node/18446744073709550792"
    },
    {
      "type": "Feature",
      "properties": {
        
        "highway": "bus_stop",
        "name": "S.Maurizio Pircher - Moritzing Pircher",
        "name:de": "Moritzing Pircher",
        "name:it": "S.Maurizio Pircher",
        
        "route_ref": "BZ-ME;NALLES"
      },
      "geometry": {
        "type": "Point",
        "coordinates": [
          11.3032133,
          46.4987111
        ]
      },
      "id": "node/18446744073709550793"
    },
    {
      "type": "Feature",
      "properties": {
        
        "highway": "bus_stop",
        "name": "S.Maurizio Pircher - Moritzing Pircher",
        "name:de": "Moritzing Pircher",
        "name:it": "S.Maurizio Pircher",
        
        "route_ref": "BZ-ME;NALLES",
        "shelter": "yes"
      },
      "geometry": {
        "type": "Point",
        "coordinates": [
          11.3034419,
          46.4984386
        ]
      },
      "id": "node/18446744073709550794"
    },
    {
      "type": "Feature",
      "properties": {
        
        "highway": "bus_stop",
        "name": "Kuenserstr. (Ungericht) - via Caines (Ungericht)",
        "name:de": "Kuenserstr. (Ungericht)",
        "name:it": "via Caines (Ungericht)",
        
        
        "route_ref": "VERNURIO"
      },
      "geometry": {
        "type": "Point",
        "coordinates": [
          11.1671689,
          46.7002656
        ]
      },
      "id": "node/18446744073709550795"
    },
    {
      "type": "Feature",
      "properties": {
        
        "highway": "bus_stop",
        "name": "Kuenserstr. (Sonnenhof) - via Caines (Sonnenhof)",
        "name:de": "Kuenserstr. (Sonnenhof)",
        "name:it": "via Caines (Sonnenhof)",
        
        
        "route_ref": "VERNURIO"
      },
      "geometry": {
        "type": "Point",
        "coordinates": [
          11.1703303,
          46.7003756
        ]
      },
      "id": "node/18446744073709550796"
    },
    {
      "type": "Feature",
      "properties": {
        
        "highway": "bus_stop",
        "name": "Kuenserstr. (Ungericht) - via Caines (Ungericht)",
        "name:de": "Kuenserstr. (Ungericht)",
        "name:it": "via Caines (Ungericht)",
        
        
        "route_ref": "VERNURIO"
      },
      "geometry": {
        "type": "Point",
        "coordinates": [
          11.1674144,
          46.70029
        ]
      },
      "id": "node/18446744073709550797"
    },
    {
      "type": "Feature",
      "properties": {
        
        "highway": "bus_stop",
        "name": "Kuenserstr. Feuerwehr - via Caines Vigili del Fuoco",
        "name:de": "Kuenserstr. Feuerwehr",
        "name:it": "via Caines Vigili del Fuoco",
        
        
        "route_ref": "VERNURIO"
      },
      "geometry": {
        "type": "Point",
        "coordinates": [
          11.1716022,
          46.6976067
        ]
      },
      "id": "node/18446744073709550798"
    },
    {
      "type": "Feature",
      "properties": {
        
        "highway": "bus_stop",
        "name": "Kuenserstr. Feuerwehr - via Caines Vigili del Fuoco",
        "name:de": "Kuenserstr. Feuerwehr",
        "name:it": "via Caines Vigili del Fuoco",
        
        
        "route_ref": "VERNURIO"
      },
      "geometry": {
        "type": "Point",
        "coordinates": [
          11.1717719,
          46.6975961
        ]
      },
      "id": "node/18446744073709550799"
    },
    {
      "type": "Feature",
      "properties": {
        
        "highway": "bus_stop",
        "name": "Karl Wolf Str. 1A - via Karl Wolf 1A",
        "name:de": "Karl Wolf Str. 1A",
        "name:it": "via Karl Wolf 1A",
        
        
        "route_ref": "2;3"
      },
      "geometry": {
        "type": "Point",
        "coordinates": [
          11.1567681,
          46.6770169
        ]
      },
      "id": "node/18446744073709550800"
    },
    {
      "type": "Feature",
      "properties": {
        
        "highway": "bus_stop",
        "name": "Karl Wolf Str. 1A - via Karl Wolf 1A",
        "name:de": "Karl Wolf Str. 1A",
        "name:it": "via Karl Wolf 1A",
        
        
        "route_ref": "3;6;12"
      },
      "geometry": {
        "type": "Point",
        "coordinates": [
          11.1566847,
          46.6771833
        ]
      },
      "id": "node/18446744073709550801"
    },
    {
      "type": "Feature",
      "properties": {
        
        "highway": "bus_stop",
        "name": "Noerderstr. 3 - via Tramontana 3",
        "name:de": "Noerderstr. 3",
        "name:it": "via Tramontana 3",
        
        
        "route_ref": "12"
      },
      "geometry": {
        "type": "Point",
        "coordinates": [
          11.1215439,
          46.6759281
        ]
      },
      "id": "node/18446744073709550802"
    },
    {
      "type": "Feature",
      "properties": {
        
        "highway": "bus_stop",
        "name": "Noerderstr. 3 - via Tramontana 3",
        "name:de": "Noerderstr. 3",
        "name:it": "via Tramontana 3",
        
        
        "route_ref": "12;NIGHTSH"
      },
      "geometry": {
        "type": "Point",
        "coordinates": [
          11.1216428,
          46.6759686
        ]
      },
      "id": "node/18446744073709550803"
    },
    {
      "type": "Feature",
      "properties": {
        
        "highway": "bus_stop",
        "name": "Schenna Dorf - Scena Paese",
        "name:de": "Schenna Dorf",
        "name:it": "Scena Paese",
        
        
        "route_ref": "NIGHTSH",
        "shelter": "yes"
      },
      "geometry": {
        "type": "Point",
        "coordinates": [
          11.1876314,
          46.6897089
        ]
      },
      "id": "node/18446744073709550804"
    },
    {
      "type": "Feature",
      "properties": {
        
        "highway": "bus_stop",
        "name": "Schennastr. 8 - via Scena 8",
        "name:de": "Schennastr. 8",
        "name:it": "via Scena 8",
        
        
        "route_ref": "NIGHTSH"
      },
      "geometry": {
        "type": "Point",
        "coordinates": [
          11.1891469,
          46.6846056
        ]
      },
      "id": "node/18446744073709550805"
    },
    {
      "type": "Feature",
      "properties": {
        
        "bench": "yes",
        "highway": "bus_stop",
        "name": "Schennastr. 7 - via Scena 7",
        "name:de": "Schennastr. 7",
        "name:it": "via Scena 7",
        
        
        "route_ref": "NIGHTSH"
      },
      "geometry": {
        "type": "Point",
        "coordinates": [
          11.1894236,
          46.6813433
        ]
      },
      "id": "node/18446744073709550806"
    },
    {
      "type": "Feature",
      "properties": {
        
        "highway": "bus_stop",
        "name": "Schennastr. 6 - via Scena 6",
        "name:de": "Schennastr. 6",
        "name:it": "via Scena 6",
        
        
        "route_ref": "NIGHTSH"
      },
      "geometry": {
        "type": "Point",
        "coordinates": [
          11.1891442,
          46.6771714
        ]
      },
      "id": "node/18446744073709550807"
    },
    {
      "type": "Feature",
      "properties": {
        
        "highway": "bus_stop",
        "name": "Schennastr. 5 - via Scena 5",
        "name:de": "Schennastr. 5",
        "name:it": "via Scena 5",
        
        
        "route_ref": "NIGHTSH"
      },
      "geometry": {
        "type": "Point",
        "coordinates": [
          11.1889417,
          46.6749417
        ]
      },
      "id": "node/18446744073709550808"
    },
    {
      "type": "Feature",
      "properties": {
        
        "bench": "yes",
        "highway": "bus_stop",
        "name": "Schennastr. 4 - via Scena 4",
        "name:de": "Schennastr. 4",
        "name:it": "via Scena 4",
        
        
        "route_ref": "NIGHTSH"
      },
      "geometry": {
        "type": "Point",
        "coordinates": [
          11.1900478,
          46.6719967
        ]
      },
      "id": "node/18446744073709550809"
    },
    {
      "type": "Feature",
      "properties": {
        
        "highway": "bus_stop",
        "name": "Algund Schulen - Lagundo scuole",
        "name:de": "Algund Schulen",
        "name:it": "Lagundo scuole",
        
        
        "route_ref": "11;12"
      },
      "geometry": {
        "type": "Point",
        "coordinates": [
          11.1189558,
          46.6813647
        ]
      },
      "id": "node/18446744073709550810"
    },
    {
      "type": "Feature",
      "properties": {
        
        "bench": "yes",
        "highway": "bus_stop",
        "name": "Thalguter Str. - via Thalguter",
        "name:de": "Thalguter Str.",
        "name:it": "via Thalguter",
        
        
        "route_ref": "13"
      },
      "geometry": {
        "type": "Point",
        "coordinates": [
          11.1252422,
          46.6805869
        ]
      },
      "id": "node/18446744073709550811"
    },
    {
      "type": "Feature",
      "properties": {
        
        "highway": "bus_stop",
        "name": "Ponte Adige - Sigmundskron",
        "name:de": "Sigmundskron",
        "name:it": "Ponte Adige",
        
        "route_ref": "9"
      },
      "geometry": {
        "type": "Point",
        "coordinates": [
          11.2998711,
          46.4854261
        ]
      },
      "id": "node/18446744073709550812"
    },
    {
      "type": "Feature",
      "properties": {
        
        "highway": "bus_stop",
        "name": "Ponte Adige - Sigmundskron",
        "name:de": "Sigmundskron",
        "name:it": "Ponte Adige",
        
        "route_ref": "9"
      },
      "geometry": {
        "type": "Point",
        "coordinates": [
          11.2999472,
          46.4853714
        ]
      },
      "id": "node/18446744073709550813"
    },
    {
      "type": "Feature",
      "properties": {
        
        "highway": "bus_stop",
        "name": "Karneid Dorf - Cornedo Paese",
        "name:de": "Karneid Dorf",
        "name:it": "Cornedo Paese",
        
        
        "route_ref": "13"
      },
      "geometry": {
        "type": "Point",
        "coordinates": [
          11.4038514,
          46.4892261
        ]
      },
      "id": "node/18446744073709550814"
    },
    {
      "type": "Feature",
      "properties": {
        
        "highway": "bus_stop",
        "name": "Karneid Dorf - Cornedo Paese",
        "name:de": "Karneid Dorf",
        "name:it": "Cornedo Paese",
        
        
        "route_ref": "13",
        "shelter": "yes"
      },
      "geometry": {
        "type": "Point",
        "coordinates": [
          11.4047086,
          46.4893142
        ]
      },
      "id": "node/18446744073709550815"
    },
    {
      "type": "Feature",
      "properties": {
        
        "highway": "bus_stop",
        "name": "Kardaun Karneiderstr. - Cardano via Cornedo",
        "name:de": "Kardaun Karneiderstr.",
        "name:it": "Cardano via Cornedo",
        
        
        "route_ref": "13"
      },
      "geometry": {
        "type": "Point",
        "coordinates": [
          11.3944411,
          46.4920606
        ]
      },
      "id": "node/18446744073709550816"
    },
    {
      "type": "Feature",
      "properties": {
        
        "highway": "bus_stop",
        "name": "Kardaun Karneiderstr. - Cardano via Cornedo",
        "name:de": "Kardaun Karneiderstr.",
        "name:it": "Cardano via Cornedo",
        
        
        "route_ref": "13"
      },
      "geometry": {
        "type": "Point",
        "coordinates": [
          11.3937519,
          46.4922981
        ]
      },
      "id": "node/18446744073709550817"
    },
    {
      "type": "Feature",
      "properties": {
        
        "highway": "bus_stop",
        "name": "Prissian Dorf - Prissiano Paese",
        "name:de": "Prissian Dorf",
        "name:it": "Prissiano Paese",
        
        
        "route_ref": "248",
        "shelter": "yes"
      },
      "geometry": {
        "type": "Point",
        "coordinates": [
          11.179445,
          46.5541575
        ]
      },
      "id": "node/18446744073709550818"
    },
    {
      "type": "Feature",
      "properties": {
        
        "highway": "bus_stop",
        "name": "Tisens Gemeinde - Tesimo Comune",
        "name:de": "Tisens Gemeinde",
        "name:it": "Tesimo Comune",
        
        
        "route_ref": "248"
      },
      "geometry": {
        "type": "Point",
        "coordinates": [
          11.1695456,
          46.5636417
        ]
      },
      "id": "node/18446744073709550819"
    },
    {
      "type": "Feature",
      "properties": {
        
        "highway": "bus_stop",
        "name": "Tisens Gemeinde - Tesimo Comune",
        "name:de": "Tisens Gemeinde",
        "name:it": "Tesimo Comune",
        
        
        "route_ref": "248"
      },
      "geometry": {
        "type": "Point",
        "coordinates": [
          11.1694439,
          46.5635628
        ]
      },
      "id": "node/18446744073709550820"
    },
    {
      "type": "Feature",
      "properties": {
        
        "highway": "bus_stop",
        "name": "Tisens (Tisog) - Tesimo (Tisog)",
        "name:de": "Tisens (Tisog)",
        "name:it": "Tesimo (Tisog)",
        
        
        "route_ref": "248"
      },
      "geometry": {
        "type": "Point",
        "coordinates": [
          11.1681447,
          46.5679128
        ]
      },
      "id": "node/18446744073709550821"
    },
    {
      "type": "Feature",
      "properties": {
        
        "highway": "bus_stop",
        "name": "Tisens (Tisog) - Tesimo (Tisog)",
        "name:de": "Tisens (Tisog)",
        "name:it": "Tesimo (Tisog)",
        
        
        "route_ref": "248"
      },
      "geometry": {
        "type": "Point",
        "coordinates": [
          11.1676956,
          46.5682486
        ]
      },
      "id": "node/18446744073709550822"
    },
    {
      "type": "Feature",
      "properties": {
        
        "highway": "bus_stop",
        "name": "Naraun - Narano",
        "name:de": "Naraun",
        "name:it": "Narano",
        
        
        "route_ref": "248"
      },
      "geometry": {
        "type": "Point",
        "coordinates": [
          11.1617603,
          46.574585
        ]
      },
      "id": "node/18446744073709550823"
    },
    {
      "type": "Feature",
      "properties": {
        
        "highway": "bus_stop",
        "name": "Naraun - Narano",
        "name:de": "Naraun",
        "name:it": "Narano",
        
        
        "route_ref": "248"
      },
      "geometry": {
        "type": "Point",
        "coordinates": [
          11.1618208,
          46.5748
        ]
      },
      "id": "node/18446744073709550824"
    },
    {
      "type": "Feature",
      "properties": {
        
        "bench": "yes",
        "highway": "bus_stop",
        "name": "Zollstr. 2 - via Dogana 2",
        "name:de": "Zollstr. 2",
        "name:it": "via Dogana 2",
        
        
        "route_ref": "11;CITY LA"
      },
      "geometry": {
        "type": "Point",
        "coordinates": [
          11.1654003,
          46.6074978
        ]
      },
      "id": "node/18446744073709550825"
    },
    {
      "type": "Feature",
      "properties": {
        
        "bench": "yes",
        "highway": "bus_stop",
        "name": "Zollstr. 2 - via Dogana 2",
        "name:de": "Zollstr. 2",
        "name:it": "via Dogana 2",
        
        
        "route_ref": "11;CITY LA"
      },
      "geometry": {
        "type": "Point",
        "coordinates": [
          11.1649325,
          46.6073725
        ]
      },
      "id": "node/18446744073709550826"
    },
    {
      "type": "Feature",
      "properties": {
        
        "highway": "bus_stop",
        "name": "Sankt Anna - Sant'Anna",
        "name:de": "Sankt Anna",
        "name:it": "Sant'Anna",
        
        
        "route_ref": "11",
        "shelter": "yes"
      },
      "geometry": {
        "type": "Point",
        "coordinates": [
          11.1600922,
          46.6075636
        ]
      },
      "id": "node/18446744073709550827"
    },
    {
      "type": "Feature",
      "properties": {
        
        "highway": "bus_stop",
        "name": "St. Veit - San Vito",
        "name:de": "St. Veit",
        "name:it": "San Vito",
        
        
        "route_ref": "13"
      },
      "geometry": {
        "type": "Point",
        "coordinates": [
          11.4034322,
          46.4845142
        ]
      },
      "id": "node/18446744073709550828"
    },
    {
      "type": "Feature",
      "properties": {
        
        "highway": "bus_stop",
        "name": "Kardaun Handwerkerz. - Cardano zona Art.",
        "name:de": "Kardaun Handwerkerz.",
        "name:it": "Cardano zona Art.",
        
        
        "route_ref": "13"
      },
      "geometry": {
        "type": "Point",
        "coordinates": [
          11.3990806,
          46.4920639
        ]
      },
      "id": "node/18446744073709550829"
    },
    {
      "type": "Feature",
      "properties": {
        
        "highway": "bus_stop",
        "name": "Kardaun Handwerkerz. - Cardano zona Art.",
        "name:de": "Kardaun Handwerkerz.",
        "name:it": "Cardano zona Art.",
        
        
        "route_ref": "13"
      },
      "geometry": {
        "type": "Point",
        "coordinates": [
          11.3991578,
          46.4921353
        ]
      },
      "id": "node/18446744073709550830"
    },
    {
      "type": "Feature",
      "properties": {
        
        "highway": "bus_stop",
        "name": "Stroblwiese 1",
        "name:de": "Stroblwiese 1",
        "name:it": "Stroblwiese 1",
        
        "route_ref": "13"
      },
      "geometry": {
        "type": "Point",
        "coordinates": [
          11.4059525,
          46.4840606
        ]
      },
      "id": "node/18446744073709550831"
    },
    {
      "type": "Feature",
      "properties": {
        
        "highway": "bus_stop",
        "name": "Stroblwiese 1",
        "name:de": "Stroblwiese 1",
        "name:it": "Stroblwiese 1",
        
        "route_ref": "13"
      },
      "geometry": {
        "type": "Point",
        "coordinates": [
          11.4059392,
          46.4840022
        ]
      },
      "id": "node/18446744073709550832"
    },
    {
      "type": "Feature",
      "properties": {
        
        "highway": "bus_stop",
        "name": "St. Veit - San Vito",
        "name:de": "St. Veit",
        "name:it": "San Vito",
        
        
        "route_ref": "13"
      },
      "geometry": {
        "type": "Point",
        "coordinates": [
          11.4037297,
          46.484485
        ]
      },
      "id": "node/18446744073709550833"
    },
    {
      "type": "Feature",
      "properties": {
        
        "highway": "bus_stop",
        "name": "Kampill Center",
        "name:de": "Kampill Center",
        "name:it": "Kampill Center",
        
        "route_ref": "13"
      },
      "geometry": {
        "type": "Point",
        "coordinates": [
          11.3761931,
          46.4935208
        ]
      },
      "id": "node/18446744073709550834"
    },
    {
      "type": "Feature",
      "properties": {
        
        "highway": "bus_stop",
        "name": "via degli Artigiani - Handwerkerstr.",
        "name:de": "Handwerkerstr.",
        "name:it": "via degli Artigiani",
        
        "route_ref": "11"
      },
      "geometry": {
        "type": "Point",
        "coordinates": [
          11.3703311,
          46.4943489
        ]
      },
      "id": "node/18446744073709550835"
    },
    {
      "type": "Feature",
      "properties": {
        
        "highway": "bus_stop",
        "name": "Ponte Adige Staz. 2 - Sigmundskron Bhf 2",
        "name:de": "Sigmundskron Bhf 2",
        "name:it": "Ponte Adige Staz. 2",
        
        "route_ref": "9"
      },
      "geometry": {
        "type": "Point",
        "coordinates": [
          11.2981556,
          46.4857864
        ]
      },
      "id": "node/18446744073709550836"
    },
    {
      "type": "Feature",
      "properties": {
        
        "highway": "bus_stop",
        "name": "Ponte Adige Staz. - Sigmundskron Bhf",
        "name:de": "Sigmundskron Bhf",
        "name:it": "Ponte Adige Staz.",
        
        "route_ref": "9"
      },
      "geometry": {
        "type": "Point",
        "coordinates": [
          11.2967564,
          46.4860019
        ]
      },
      "id": "node/18446744073709550837"
    },
    {
      "type": "Feature",
      "properties": {
        
        "highway": "bus_stop",
        "name": "stazione 1 - Bahnhof 1",
        "name:de": "Bahnhof 1",
        "name:it": "stazione 1",
        
        "route_ref": "BZ-ME;2;3;4;5;6;9;10A;11;16;153",
        "shelter": "yes"
      },
      "geometry": {
        "type": "Point",
        "coordinates": [
          11.3579211,
          46.4965261
        ]
      },
      "id": "node/18446744073709550838"
    },
    {
      "type": "Feature",
      "properties": {
        
        "highway": "bus_stop",
        "name": "via Ospedale - Spitalgasse",
        "name:de": "Spitalgasse",
        "name:it": "via Ospedale",
        
        "route_ref": "1;2;3;4;5;7B;8;10B;12;14;153"
      },
      "geometry": {
        "type": "Point",
        "coordinates": [
          11.3497611,
          46.4976036
        ]
      },
      "id": "node/18446744073709550839"
    },
    {
      "type": "Feature",
      "properties": {
        
        "highway": "bus_stop",
        "name": "via Duca d'Aosta - Duca d'Aosta Str.",
        "name:de": "Duca d'Aosta Str.",
        "name:it": "via Duca d'Aosta",
        
        "route_ref": "5"
      },
      "geometry": {
        "type": "Point",
        "coordinates": [
          11.3366942,
          46.50036
        ]
      },
      "id": "node/18446744073709550840"
    },
    {
      "type": "Feature",
      "properties": {
        
        "highway": "bus_stop",
        "name": "Firmiano - Firmian",
        "name:de": "Firmian",
        "name:it": "Firmiano",
        
        "route_ref": "9",
        "shelter": "yes"
      },
      "geometry": {
        "type": "Point",
        "coordinates": [
          11.3055594,
          46.4906253
        ]
      },
      "id": "node/18446744073709550841"
    },
    {
      "type": "Feature",
      "properties": {
        
        "highway": "bus_stop",
        "name": "Firmiano - Firmian",
        "name:de": "Firmian",
        "name:it": "Firmiano",
        
        "route_ref": "9"
      },
      "geometry": {
        "type": "Point",
        "coordinates": [
          11.3051767,
          46.4903775
        ]
      },
      "id": "node/18446744073709550842"
    },
    {
      "type": "Feature",
      "properties": {
        
        "highway": "bus_stop",
        "name": "via Volta 1 - Volta Str. 1",
        "name:de": "Volta Str. 1",
        "name:it": "via Volta 1",
        
        "route_ref": "2"
      },
      "geometry": {
        "type": "Point",
        "coordinates": [
          11.3394175,
          46.4789522
        ]
      },
      "id": "node/18446744073709550843"
    },
    {
      "type": "Feature",
      "properties": {
        
        "highway": "bus_stop",
        "name": "via Volta 1 - Volta Str. 1",
        "name:de": "Volta Str. 1",
        "name:it": "via Volta 1",
        
        "route_ref": "2"
      },
      "geometry": {
        "type": "Point",
        "coordinates": [
          11.3393822,
          46.4788608
        ]
      },
      "id": "node/18446744073709550844"
    },
    {
      "type": "Feature",
      "properties": {
        
        "highway": "bus_stop",
        "name": "via Fago 4 - Fagen Str. 4",
        "name:de": "Fagen Str. 4",
        "name:it": "via Fago 4",
        
        "route_ref": "153"
      },
      "geometry": {
        "type": "Point",
        "coordinates": [
          11.3371153,
          46.5059867
        ]
      },
      "id": "node/18446744073709550845"
    },
    {
      "type": "Feature",
      "properties": {
        
        "highway": "bus_stop",
        "name": "via Pacinotti 2 - Pacinotti Str. 2",
        "name:de": "Pacinotti Str. 2",
        "name:it": "via Pacinotti 2",
        
        "route_ref": "4;6",
        "shelter": "yes"
      },
      "geometry": {
        "type": "Point",
        "coordinates": [
          11.3307519,
          46.4819672
        ]
      },
      "id": "node/18446744073709550846"
    },
    {
      "type": "Feature",
      "properties": {
        
        "highway": "bus_stop",
        "name": "via Sassari 2 - Sassari Str. 2",
        "name:de": "Sassari Str. 2",
        "name:it": "via Sassari 2",
        
        "route_ref": "6;9",
        "shelter": "yes"
      },
      "geometry": {
        "type": "Point",
        "coordinates": [
          11.3199217,
          46.4883458
        ]
      },
      "id": "node/18446744073709550847"
    },
    {
      "type": "Feature",
      "properties": {
        
        "highway": "bus_stop",
        "name": "via Sassari 1 - Sassari Str. 1",
        "name:de": "Sassari Str. 1",
        "name:it": "via Sassari 1",
        
        "route_ref": "6;9",
        "shelter": "yes"
      },
      "geometry": {
        "type": "Point",
        "coordinates": [
          11.3226728,
          46.4886744
        ]
      },
      "id": "node/18446744073709550848"
    },
    {
      "type": "Feature",
      "properties": {
        
        "highway": "bus_stop",
        "name": "via Sorrento - Sorrent Str.",
        "name:de": "Sorrent Str.",
        "name:it": "via Sorrento",
        
        "route_ref": "6;9;16",
        "shelter": "yes"
      },
      "geometry": {
        "type": "Point",
        "coordinates": [
          11.3282978,
          46.4940561
        ]
      },
      "id": "node/18446744073709550849"
    },
    {
      "type": "Feature",
      "properties": {
        
        "highway": "bus_stop",
        "name": "via Sorrento - Sorrent Str.",
        "name:de": "Sorrent Str.",
        "name:it": "via Sorrento",
        
        "route_ref": "6;9;16",
        "shelter": "yes"
      },
      "geometry": {
        "type": "Point",
        "coordinates": [
          11.3282569,
          46.4943028
        ]
      },
      "id": "node/18446744073709550850"
    },
    {
      "type": "Feature",
      "properties": {
        
        "highway": "bus_stop",
        "name": "via Montecassino - Montecassino Str.",
        "name:de": "Montecassino Str.",
        "name:it": "via Montecassino",
        
        "route_ref": "6;9",
        "shelter": "yes"
      },
      "geometry": {
        "type": "Point",
        "coordinates": [
          11.3254625,
          46.48948
        ]
      },
      "id": "node/18446744073709550851"
    },
    {
      "type": "Feature",
      "properties": {
        
        "highway": "bus_stop",
        "name": "via Del Ronco - Neubruchweg",
        "name:de": "Neubruchweg",
        "name:it": "via Del Ronco",
        
        "route_ref": "6;9;16",
        "shelter": "yes"
      },
      "geometry": {
        "type": "Point",
        "coordinates": [
          11.3259661,
          46.49176
        ]
      },
      "id": "node/18446744073709550852"
    },
    {
      "type": "Feature",
      "properties": {
        
        "highway": "bus_stop",
        "name": "via Del Ronco - Neubruchweg",
        "name:de": "Neubruchweg",
        "name:it": "via Del Ronco",
        
        "route_ref": "6;9;16",
        "shelter": "yes"
      },
      "geometry": {
        "type": "Point",
        "coordinates": [
          11.3260128,
          46.4921847
        ]
      },
      "id": "node/18446744073709550853"
    },
    {
      "type": "Feature",
      "properties": {
        
        "highway": "bus_stop",
        "name": "Passeggiata dei Castani - Koestenweg",
        "name:de": "Koestenweg",
        "name:it": "Passeggiata dei Castani",
        
        "route_ref": "7B;7A;14",
        "shelter": "yes"
      },
      "geometry": {
        "type": "Point",
        "coordinates": [
          11.3476708,
          46.4813886
        ]
      },
      "id": "node/18446744073709550854"
    },
    {
      "type": "Feature",
      "properties": {
        
        "highway": "bus_stop",
        "name": "via Macello 2 - Schlachthof Str. 2",
        "name:de": "Schlachthof Str. 2",
        "name:it": "via Macello 2",
        
        "route_ref": "11;13;14",
        "shelter": "yes"
      },
      "geometry": {
        "type": "Point",
        "coordinates": [
          11.3676558,
          46.4967094
        ]
      },
      "id": "node/18446744073709550855"
    },
    {
      "type": "Feature",
      "properties": {
        
        "highway": "bus_stop",
        "name": "ponte Campiglio - Kampiller Bruecke",
        "name:de": "Kampiller Bruecke",
        "name:it": "ponte Campiglio",
        
        "route_ref": "11;13;14",
        "shelter": "yes"
      },
      "geometry": {
        "type": "Point",
        "coordinates": [
          11.3685758,
          46.4932653
        ]
      },
      "id": "node/18446744073709550856"
    },
    {
      "type": "Feature",
      "properties": {
        
        "highway": "bus_stop",
        "name": "via Piani di Mezzo - Mitterweg",
        "name:de": "Mitterweg",
        "name:it": "via Piani di Mezzo",
        
        "route_ref": "11",
        "shelter": "yes"
      },
      "geometry": {
        "type": "Point",
        "coordinates": [
          11.3699819,
          46.4953969
        ]
      },
      "id": "node/18446744073709550857"
    },
    {
      "type": "Feature",
      "properties": {
        
        "highway": "bus_stop",
        "name": "via Duca d'Aosta - Duca d'Aosta Str.",
        "name:de": "Duca d'Aosta Str.",
        "name:it": "via Duca d'Aosta",
        
        "route_ref": "5",
        "shelter": "yes"
      },
      "geometry": {
        "type": "Point",
        "coordinates": [
          11.3366886,
          46.5001906
        ]
      },
      "id": "node/18446744073709550858"
    },
    {
      "type": "Feature",
      "properties": {
        
        "highway": "bus_stop",
        "name": "via Druso 9 - Drusus Str. 9",
        "name:de": "Drusus Str. 9",
        "name:it": "via Druso 9",
        
        "route_ref": "8"
      },
      "geometry": {
        "type": "Point",
        "coordinates": [
          11.3198025,
          46.4943792
        ]
      },
      "id": "node/18446744073709550859"
    },
    {
      "type": "Feature",
      "properties": {
        
        "highway": "bus_stop",
        "name": "via Druso 9 - Drusus Str. 9",
        "name:de": "Drusus Str. 9",
        "name:it": "via Druso 9",
        
        "route_ref": "2;6;8",
        "shelter": "yes"
      },
      "geometry": {
        "type": "Point",
        "coordinates": [
          11.3195461,
          46.4944061
        ]
      },
      "id": "node/18446744073709550860"
    },
    {
      "type": "Feature",
      "properties": {
        
        "highway": "bus_stop",
        "name": "via Siemens 2 - Siemens Str. 2",
        "name:de": "Siemens Str. 2",
        "name:it": "via Siemens 2",
        
        "route_ref": "6"
      },
      "geometry": {
        "type": "Point",
        "coordinates": [
          11.3302931,
          46.4825122
        ]
      },
      "id": "node/18446744073709550861"
    },
    {
      "type": "Feature",
      "properties": {
        
        "highway": "bus_stop",
        "name": "via Galilei 2 - Galilei Str. 2",
        "name:de": "Galilei Str. 2",
        "name:it": "via Galilei 2",
        
        "route_ref": "6"
      },
      "geometry": {
        "type": "Point",
        "coordinates": [
          11.3366586,
          46.4861047
        ]
      },
      "id": "node/18446744073709550862"
    },
    {
      "type": "Feature",
      "properties": {
        
        "highway": "bus_stop",
        "name": "via Galilei 1 - Galilei Str. 1",
        "name:de": "Galilei Str. 1",
        "name:it": "via Galilei 1",
        
        "route_ref": "4"
      },
      "geometry": {
        "type": "Point",
        "coordinates": [
          11.3408836,
          46.4869183
        ]
      },
      "id": "node/18446744073709550863"
    },
    {
      "type": "Feature",
      "properties": {
        
        "highway": "bus_stop",
        "name": "via Avogadro - Avogadro Str.",
        "name:de": "Avogadro Str.",
        "name:it": "via Avogadro",
        
        "route_ref": "6"
      },
      "geometry": {
        "type": "Point",
        "coordinates": [
          11.3406197,
          46.4852714
        ]
      },
      "id": "node/18446744073709550864"
    },
    {
      "type": "Feature",
      "properties": {
        
        "highway": "bus_stop",
        "name": "Funivia S. Genesio - Seilbahn Jenesien",
        "name:de": "Seilbahn Jenesien",
        "name:it": "Funivia S. Genesio",
        
        "route_ref": "1;12;14",
        "shelter": "yes"
      },
      "geometry": {
        "type": "Point",
        "coordinates": [
          11.3526022,
          46.5141769
        ]
      },
      "id": "node/18446744073709550865"
    },
    {
      "type": "Feature",
      "properties": {
        
        "highway": "bus_stop",
        "name": "via Druso 2 - Drusus Str. 2",
        "name:de": "Drusus Str. 2",
        "name:it": "via Druso 2",
        
        "route_ref": "4;6;9;16"
      },
      "geometry": {
        "type": "Point",
        "coordinates": [
          11.3421381,
          46.4947142
        ]
      },
      "id": "node/18446744073709550866"
    },
    {
      "type": "Feature",
      "properties": {
        
        "highway": "bus_stop",
        "name": "via Druso 2 - Drusus Str. 2",
        "name:de": "Drusus Str. 2",
        "name:it": "via Druso 2",
        
        "route_ref": "4;6;9;16"
      },
      "geometry": {
        "type": "Point",
        "coordinates": [
          11.3414283,
          46.49488
        ]
      },
      "id": "node/18446744073709550867"
    },
    {
      "type": "Feature",
      "properties": {
        
        "highway": "bus_stop",
        "name": "via Druso 1 - Drusus Str. 1",
        "name:de": "Drusus Str. 1",
        "name:it": "via Druso 1",
        
        "route_ref": "4;6;9;16"
      },
      "geometry": {
        "type": "Point",
        "coordinates": [
          11.3441619,
          46.4946175
        ]
      },
      "id": "node/18446744073709550868"
    },
    {
      "type": "Feature",
      "properties": {
        
        "highway": "bus_stop",
        "name": "via Druso 1 - Drusus Str. 1",
        "name:de": "Drusus Str. 1",
        "name:it": "via Druso 1",
        
        "route_ref": "4;6;9;16"
      },
      "geometry": {
        "type": "Point",
        "coordinates": [
          11.344745,
          46.4947322
        ]
      },
      "id": "node/18446744073709550869"
    },
    {
      "type": "Feature",
      "properties": {
        
        "highway": "bus_stop",
        "name": "ponte Druso - Drusus Bruecke",
        "name:de": "Drusus Bruecke",
        "name:it": "ponte Druso",
        
        "route_ref": "4;6;9;16"
      },
      "geometry": {
        "type": "Point",
        "coordinates": [
          11.3495597,
          46.4949431
        ]
      },
      "id": "node/18446744073709550870"
    },
    {
      "type": "Feature",
      "properties": {
        
        "highway": "bus_stop",
        "name": "ponte Druso - Drusus Bruecke",
        "name:de": "Drusus Bruecke",
        "name:it": "ponte Druso",
        
        "route_ref": "4;6;9;16"
      },
      "geometry": {
        "type": "Point",
        "coordinates": [
          11.34705,
          46.4947753
        ]
      },
      "id": "node/18446744073709550871"
    },
    {
      "type": "Feature",
      "properties": {
        
        "highway": "bus_stop",
        "name": "piazza Verdi - Verdi Platz",
        "name:de": "Verdi Platz",
        "name:it": "piazza Verdi",
        
        "route_ref": "4;6;9;10A;11;16"
      },
      "geometry": {
        "type": "Point",
        "coordinates": [
          11.3547028,
          46.4949692
        ]
      },
      "id": "node/18446744073709550872"
    },
    {
      "type": "Feature",
      "properties": {
        
        "highway": "bus_stop",
        "name": "piazza Verdi - Verdi Platz",
        "name:de": "Verdi Platz",
        "name:it": "piazza Verdi",
        
        "route_ref": "4;6;9;16",
        "shelter": "yes"
      },
      "geometry": {
        "type": "Point",
        "coordinates": [
          11.3533203,
          46.4953839
        ]
      },
      "id": "node/18446744073709550873"
    },
    {
      "type": "Feature",
      "properties": {
        
        "bench": "yes",
        "highway": "bus_stop",
        "name": "Castel Roncolo - Schloss Runkelstein",
        "name:de": "Schloss Runkelstein",
        "name:it": "Castel Roncolo",
        
        "route_ref": "12"
      },
      "geometry": {
        "type": "Point",
        "coordinates": [
          11.3584317,
          46.5155683
        ]
      },
      "id": "node/18446744073709550874"
    },
    {
      "type": "Feature",
      "properties": {
        
        "highway": "bus_stop",
        "name": "via S. Antonio - St. Anton Str.",
        "name:de": "St. Anton Str.",
        "name:it": "via S. Antonio",
        
        "route_ref": "12"
      },
      "geometry": {
        "type": "Point",
        "coordinates": [
          11.3541175,
          46.5130519
        ]
      },
      "id": "node/18446744073709550875"
    },
    {
      "type": "Feature",
      "properties": {
        
        "highway": "bus_stop",
        "name": "via Beato Arrigo - Selig - Selig-Heinrich Str.",
        "name:de": "Selig-Heinrich Str.",
        "name:it": "via Beato Arrigo - Selig",
        
        "route_ref": "12"
      },
      "geometry": {
        "type": "Point",
        "coordinates": [
          11.3543264,
          46.5074478
        ]
      },
      "id": "node/18446744073709550876"
    },
    {
      "type": "Feature",
      "properties": {
        
        "highway": "bus_stop",
        "name": "via Weggenstein 2 - Weggenstein Str. 2",
        "name:de": "Weggenstein Str. 2",
        "name:it": "via Weggenstein 2",
        
        "route_ref": "12"
      },
      "geometry": {
        "type": "Point",
        "coordinates": [
          11.3547244,
          46.5055744
        ]
      },
      "id": "node/18446744073709550877"
    },
    {
      "type": "Feature",
      "properties": {
        
        "highway": "bus_stop",
        "name": "via Weggenstein 1 - Weggenstein Str. 1",
        "name:de": "Weggenstein Str. 1",
        "name:it": "via Weggenstein 1",
        
        "route_ref": "12",
        "shelter": "yes"
      },
      "geometry": {
        "type": "Point",
        "coordinates": [
          11.356535,
          46.5035978
        ]
      },
      "id": "node/18446744073709550878"
    },
    {
      "type": "Feature",
      "properties": {
        
        "highway": "bus_stop",
        "name": "via Cavour - Cavour Str.",
        "name:de": "Cavour Str.",
        "name:it": "via Cavour",
        
        "route_ref": "12"
      },
      "geometry": {
        "type": "Point",
        "coordinates": [
          11.3597056,
          46.5015631
        ]
      },
      "id": "node/18446744073709550879"
    },
    {
      "type": "Feature",
      "properties": {
        
        "highway": "bus_stop",
        "name": "via Mozart - Mozart Str.",
        "name:de": "Mozart Str.",
        "name:it": "via Mozart",
        
        "route_ref": "5;16"
      },
      "geometry": {
        "type": "Point",
        "coordinates": [
          11.3160467,
          46.4891617
        ]
      },
      "id": "node/18446744073709550880"
    },
    {
      "type": "Feature",
      "properties": {
        
        "highway": "bus_stop",
        "name": "via Sordo - Sordo Str.",
        "name:de": "Sordo Str.",
        "name:it": "via Sordo",
        
        "route_ref": "5"
      },
      "geometry": {
        "type": "Point",
        "coordinates": [
          11.3149597,
          46.4905283
        ]
      },
      "id": "node/18446744073709550881"
    },
    {
      "type": "Feature",
      "properties": {
        
        "highway": "bus_stop",
        "name": "via A. Emeri 2 - A. Emeri Str. 2",
        "name:de": "A. Emeri Str. 2",
        "name:it": "via A. Emeri 2",
        
        "route_ref": "3;16;153"
      },
      "geometry": {
        "type": "Point",
        "coordinates": [
          11.3152519,
          46.4801431
        ]
      },
      "id": "node/18446744073709550882"
    },
    {
      "type": "Feature",
      "properties": {
        
        "highway": "bus_stop",
        "name": "via A. Emeri 1 - A. Emeri Str. 1",
        "name:de": "A. Emeri Str. 1",
        "name:it": "via A. Emeri 1",
        
        "route_ref": "3;16;153"
      },
      "geometry": {
        "type": "Point",
        "coordinates": [
          11.316085,
          46.4816039
        ]
      },
      "id": "node/18446744073709550883"
    },
    {
      "type": "Feature",
      "properties": {
        
        "highway": "bus_stop",
        "name": "via A. Emeri 1 - A. Emeri Str. 1",
        "name:de": "A. Emeri Str. 1",
        "name:it": "via A. Emeri 1",
        
        "route_ref": "3;16;153"
      },
      "geometry": {
        "type": "Point",
        "coordinates": [
          11.3159797,
          46.4816242
        ]
      },
      "id": "node/18446744073709550884"
    },
    {
      "type": "Feature",
      "properties": {
        
        "highway": "bus_stop",
        "name": "via Ortles - Ortler Str.",
        "name:de": "Ortler Str.",
        "name:it": "via Ortles",
        
        "route_ref": "3;16;153"
      },
      "geometry": {
        "type": "Point",
        "coordinates": [
          11.3197475,
          46.4830425
        ]
      },
      "id": "node/18446744073709550885"
    },
    {
      "type": "Feature",
      "properties": {
        
        "highway": "bus_stop",
        "name": "via Ortles - Ortler Str.",
        "name:de": "Ortler Str.",
        "name:it": "via Ortles",
        
        "route_ref": "3;16;153"
      },
      "geometry": {
        "type": "Point",
        "coordinates": [
          11.3189747,
          46.4828925
        ]
      },
      "id": "node/18446744073709550886"
    },
    {
      "type": "Feature",
      "properties": {
        
        "bench": "yes",
        "highway": "bus_stop",
        "name": "Laives ZI - Leifers IZ",
        "name:de": "Leifers IZ",
        "name:it": "Laives ZI",
        
        "route_ref": "2;VAD_LAIV"
      },
      "geometry": {
        "type": "Point",
        "coordinates": [
          11.3290997,
          46.4106478
        ]
      },
      "id": "node/18446744073709550887"
    },
    {
      "type": "Feature",
      "properties": {
        
        "highway": "bus_stop",
        "name": "via Druso 4 - Drusus Str. 4",
        "name:de": "Drusus Str. 4",
        "name:it": "via Druso 4",
        
        "route_ref": "6;8;9;16"
      },
      "geometry": {
        "type": "Point",
        "coordinates": [
          11.3348222,
          46.4952239
        ]
      },
      "id": "node/18446744073709550888"
    },
    {
      "type": "Feature",
      "properties": {
        
        "highway": "bus_stop",
        "name": "via Druso 4 - Drusus Str. 4",
        "name:de": "Drusus Str. 4",
        "name:it": "via Druso 4",
        
        "route_ref": "2;6;8;9;16"
      },
      "geometry": {
        "type": "Point",
        "coordinates": [
          11.3353367,
          46.4953547
        ]
      },
      "id": "node/18446744073709550889"
    },
    {
      "type": "Feature",
      "properties": {
        
        "highway": "bus_stop",
        "name": "via Bari 2 - Bari Str. 2",
        "name:de": "Bari Str. 2",
        "name:it": "via Bari 2",
        
        "route_ref": "3",
        "shelter": "yes"
      },
      "geometry": {
        "type": "Point",
        "coordinates": [
          11.3243139,
          46.4864597
        ]
      },
      "id": "node/18446744073709550890"
    },
    {
      "type": "Feature",
      "properties": {
        
        "highway": "bus_stop",
        "name": "via Bari 1 - Bari Str. 1",
        "name:de": "Bari Str. 1",
        "name:it": "via Bari 1",
        
        "route_ref": "3",
        "shelter": "yes"
      },
      "geometry": {
        "type": "Point",
        "coordinates": [
          11.3266967,
          46.48775
        ]
      },
      "id": "node/18446744073709550891"
    },
    {
      "type": "Feature",
      "properties": {
        
        "highway": "bus_stop",
        "name": "via Macello 1 - Schlachthof Str. 1",
        "name:de": "Schlachthof Str. 1",
        "name:it": "via Macello 1",
        
        "route_ref": "13;14",
        "shelter": "yes"
      },
      "geometry": {
        "type": "Point",
        "coordinates": [
          11.3658342,
          46.4979172
        ]
      },
      "id": "node/18446744073709550892"
    },
    {
      "type": "Feature",
      "properties": {
        
        "highway": "bus_stop",
        "name": "via Macello 1 - Schlachthof Str. 1",
        "name:de": "Schlachthof Str. 1",
        "name:it": "via Macello 1",
        
        "route_ref": "11;13;14",
        "shelter": "yes"
      },
      "geometry": {
        "type": "Point",
        "coordinates": [
          11.3653572,
          46.4978992
        ]
      },
      "id": "node/18446744073709550893"
    },
    {
      "type": "Feature",
      "properties": {
        
        "highway": "bus_stop",
        "name": "via Macello 2 - Schlachthof Str. 2",
        "name:de": "Schlachthof Str. 2",
        "name:it": "via Macello 2",
        
        "route_ref": "13;14",
        "shelter": "yes"
      },
      "geometry": {
        "type": "Point",
        "coordinates": [
          11.3682675,
          46.4961172
        ]
      },
      "id": "node/18446744073709550894"
    },
    {
      "type": "Feature",
      "properties": {
        
        "highway": "bus_stop",
        "name": "via Macello 3 - Schlachthof Str. 3",
        "name:de": "Schlachthof Str. 3",
        "name:it": "via Macello 3",
        
        "route_ref": "13;14",
        "shelter": "yes"
      },
      "geometry": {
        "type": "Point",
        "coordinates": [
          11.3681044,
          46.4953664
        ]
      },
      "id": "node/18446744073709550895"
    },
    {
      "type": "Feature",
      "properties": {
        
        "highway": "bus_stop",
        "name": "ponte Campiglio - Kampiller Bruecke",
        "name:de": "Kampiller Bruecke",
        "name:it": "ponte Campiglio",
        
        "route_ref": "13;14"
      },
      "geometry": {
        "type": "Point",
        "coordinates": [
          11.3689667,
          46.4923642
        ]
      },
      "id": "node/18446744073709550896"
    },
    {
      "type": "Feature",
      "properties": {
        
        "highway": "bus_stop",
        "name": "Funivia del Colle - Kohlern Seilbahn",
        "name:de": "Kohlern Seilbahn",
        "name:it": "Funivia del Colle",
        
        "route_ref": "13"
      },
      "geometry": {
        "type": "Point",
        "coordinates": [
          11.368435,
          46.4910761
        ]
      },
      "id": "node/18446744073709550897"
    },
    {
      "type": "Feature",
      "properties": {
        
        "highway": "bus_stop",
        "name": "via Macello 4 - Schlachthof Str. 4",
        "name:de": "Schlachthof Str. 4",
        "name:it": "via Macello 4",
        
        "route_ref": "11"
      },
      "geometry": {
        "type": "Point",
        "coordinates": [
          11.3630911,
          46.4932219
        ]
      },
      "id": "node/18446744073709550898"
    },
    {
      "type": "Feature",
      "properties": {
        
        "highway": "bus_stop",
        "name": "via Macello 5 - Schlachthof Str. 5",
        "name:de": "Schlachthof Str. 5",
        "name:it": "via Macello 5",
        
        "route_ref": "11"
      },
      "geometry": {
        "type": "Point",
        "coordinates": [
          11.3606344,
          46.4937672
        ]
      },
      "id": "node/18446744073709550899"
    },
    {
      "type": "Feature",
      "properties": {
        
        "highway": "bus_stop",
        "name": "via Macello 6 - Schlachthof Str. 6",
        "name:de": "Schlachthof Str. 6",
        "name:it": "via Macello 6",
        
        "route_ref": "11"
      },
      "geometry": {
        "type": "Point",
        "coordinates": [
          11.3578706,
          46.4949133
        ]
      },
      "id": "node/18446744073709550900"
    },
    {
      "type": "Feature",
      "properties": {
        
        "highway": "bus_stop",
        "name": "via Macello 7 - Schlachthof Str. 7",
        "name:de": "Schlachthof Str. 7",
        "name:it": "via Macello 7",
        
        "route_ref": "11"
      },
      "geometry": {
        "type": "Point",
        "coordinates": [
          11.3560103,
          46.4945194
        ]
      },
      "id": "node/18446744073709550901"
    },
    {
      "type": "Feature",
      "properties": {
        
        "highway": "bus_stop",
        "name": "via Castel Flavon - Kuepachweg",
        "name:de": "Kuepachweg",
        "name:it": "via Castel Flavon",
        
        "route_ref": "7B;7A;14"
      },
      "geometry": {
        "type": "Point",
        "coordinates": [
          11.3493208,
          46.4835186
        ]
      },
      "id": "node/18446744073709550902"
    },
    {
      "type": "Feature",
      "properties": {
        
        "highway": "bus_stop",
        "name": "via Lancia - Lancia Str.",
        "name:de": "Lancia Str.",
        "name:it": "via Lancia",
        
        "route_ref": "4"
      },
      "geometry": {
        "type": "Point",
        "coordinates": [
          11.3369739,
          46.4849483
        ]
      },
      "id": "node/18446744073709550903"
    },
    {
      "type": "Feature",
      "properties": {
        
        "highway": "bus_stop",
        "name": "via Roma 3 - Romstr. 3",
        "name:de": "Romstr. 3",
        "name:it": "via Roma 3",
        
        "route_ref": "2;4;7B",
        "shelter": "yes"
      },
      "geometry": {
        "type": "Point",
        "coordinates": [
          11.34217,
          46.4905081
        ]
      },
      "id": "node/18446744073709550904"
    },
    {
      "type": "Feature",
      "properties": {
        
        "highway": "bus_stop",
        "name": "via Lancia - Lancia Str.",
        "name:de": "Lancia Str.",
        "name:it": "via Lancia",
        
        "route_ref": "4",
        "shelter": "yes"
      },
      "geometry": {
        "type": "Point",
        "coordinates": [
          11.3366994,
          46.4842161
        ]
      },
      "id": "node/18446744073709550905"
    },
    {
      "type": "Feature",
      "properties": {
        
        "highway": "bus_stop",
        "name": "via Siemens 1 - Siemens Str. 1",
        "name:de": "Siemens Str. 1",
        "name:it": "via Siemens 1",
        
        "route_ref": "4"
      },
      "geometry": {
        "type": "Point",
        "coordinates": [
          11.3326667,
          46.48278
        ]
      },
      "id": "node/18446744073709550906"
    },
    {
      "type": "Feature",
      "properties": {
        
        "highway": "bus_stop",
        "name": "via Siemens 1 - Siemens Str. 1",
        "name:de": "Siemens Str. 1",
        "name:it": "via Siemens 1",
        
        "route_ref": "4;6",
        "shelter": "yes"
      },
      "geometry": {
        "type": "Point",
        "coordinates": [
          11.3346317,
          46.4830753
        ]
      },
      "id": "node/18446744073709550907"
    },
    {
      "type": "Feature",
      "properties": {
        
        "highway": "bus_stop",
        "name": "via Pacinotti 2 - Pacinotti Str. 2",
        "name:de": "Pacinotti Str. 2",
        "name:it": "via Pacinotti 2",
        
        "route_ref": "4",
        "shelter": "yes"
      },
      "geometry": {
        "type": "Point",
        "coordinates": [
          11.3299478,
          46.4804972
        ]
      },
      "id": "node/18446744073709550908"
    },
    {
      "type": "Feature",
      "properties": {
        
        "highway": "bus_stop",
        "name": "via Volta 2 - Volta Str. 2",
        "name:de": "Volta Str. 2",
        "name:it": "via Volta 2",
        
        "route_ref": "2;4"
      },
      "geometry": {
        "type": "Point",
        "coordinates": [
          11.3322636,
          46.4795347
        ]
      },
      "id": "node/18446744073709550909"
    },
    {
      "type": "Feature",
      "properties": {
        
        "highway": "bus_stop",
        "name": "via Volta 2 - Volta Str. 2",
        "name:de": "Volta Str. 2",
        "name:it": "via Volta 2",
        
        "route_ref": "2"
      },
      "geometry": {
        "type": "Point",
        "coordinates": [
          11.3338036,
          46.4791797
        ]
      },
      "id": "node/18446744073709550910"
    },
    {
      "type": "Feature",
      "properties": {
        
        "highway": "bus_stop",
        "name": "via Volta 5 - Volta Str. 5",
        "name:de": "Volta Str. 5",
        "name:it": "via Volta 5",
        
        "route_ref": "6;10B"
      },
      "geometry": {
        "type": "Point",
        "coordinates": [
          11.3252753,
          46.4806683
        ]
      },
      "id": "node/18446744073709550911"
    },
    {
      "type": "Feature",
      "properties": {
        
        "highway": "bus_stop",
        "name": "via Volta 5 - Volta Str. 5",
        "name:de": "Volta Str. 5",
        "name:it": "via Volta 5",
        
        "route_ref": "6;10A",
        "shelter": "yes"
      },
      "geometry": {
        "type": "Point",
        "coordinates": [
          11.3254411,
          46.4805692
        ]
      },
      "id": "node/18446744073709550912"
    },
    {
      "type": "Feature",
      "properties": {
        
        "highway": "bus_stop",
        "name": "via Sarentino 1 - Sarntaler Str. 1",
        "name:de": "Sarntaler Str. 1",
        "name:it": "via Sarentino 1",
        
        "route_ref": "1;12;14",
        "shelter": "yes"
      },
      "geometry": {
        "type": "Point",
        "coordinates": [
          11.3499211,
          46.5123692
        ]
      },
      "id": "node/18446744073709550913"
    },
    {
      "type": "Feature",
      "properties": {
        
        "highway": "bus_stop",
        "name": "via Sarentino 1 - Sarntaler Str. 1",
        "name:de": "Sarntaler Str. 1",
        "name:it": "via Sarentino 1",
        
        "route_ref": "1;14"
      },
      "geometry": {
        "type": "Point",
        "coordinates": [
          11.3501444,
          46.5124794
        ]
      },
      "id": "node/18446744073709550914"
    },
    {
      "type": "Feature",
      "properties": {
        
        "highway": "bus_stop",
        "name": "via Sarentino 2 - Sarntaler Str. 2",
        "name:de": "Sarntaler Str. 2",
        "name:it": "via Sarentino 2",
        
        "route_ref": "1;12;14",
        "shelter": "yes"
      },
      "geometry": {
        "type": "Point",
        "coordinates": [
          11.3477025,
          46.5099431
        ]
      },
      "id": "node/18446744073709550915"
    },
    {
      "type": "Feature",
      "properties": {
        
        "highway": "bus_stop",
        "name": "via Sarentino 2 - Sarntaler Str. 2",
        "name:de": "Sarntaler Str. 2",
        "name:it": "via Sarentino 2",
        
        "route_ref": "1;14"
      },
      "geometry": {
        "type": "Point",
        "coordinates": [
          11.3477892,
          46.5099592
        ]
      },
      "id": "node/18446744073709550916"
    },
    {
      "type": "Feature",
      "properties": {
        
        "highway": "bus_stop",
        "name": "via Parma 1 - Parma Str. 1",
        "name:de": "Parma Str. 1",
        "name:it": "via Parma 1",
        
        "route_ref": "16;153"
      },
      "geometry": {
        "type": "Point",
        "coordinates": [
          11.3203753,
          46.4901075
        ]
      },
      "id": "node/18446744073709550917"
    },
    {
      "type": "Feature",
      "properties": {
        
        "highway": "bus_stop",
        "name": "via Sassari 2 - Sassari Str. 2",
        "name:de": "Sassari Str. 2",
        "name:it": "via Sassari 2",
        
        "route_ref": "6;9;153"
      },
      "geometry": {
        "type": "Point",
        "coordinates": [
          11.3195039,
          46.4883006
        ]
      },
      "id": "node/18446744073709550918"
    },
    {
      "type": "Feature",
      "properties": {
        
        "highway": "bus_stop",
        "name": "via Parma 2 - Parmastr. 2",
        "name:de": "Parmastr. 2",
        "name:it": "via Parma 2",
        
        "route_ref": "16"
      },
      "geometry": {
        "type": "Point",
        "coordinates": [
          11.32167,
          46.4871456
        ]
      },
      "id": "node/18446744073709550919"
    },
    {
      "type": "Feature",
      "properties": {
        
        "highway": "bus_stop",
        "name": "via Sassari 1 - Sassari Str. 1",
        "name:de": "Sassari Str. 1",
        "name:it": "via Sassari 1",
        
        "route_ref": "6;9",
        "shelter": "yes"
      },
      "geometry": {
        "type": "Point",
        "coordinates": [
          11.3229122,
          46.4887556
        ]
      },
      "id": "node/18446744073709550920"
    },
    {
      "type": "Feature",
      "properties": {
        
        "highway": "bus_stop",
        "name": "via Cagliari - Cagliari Str.",
        "name:de": "Cagliari Str.",
        "name:it": "via Cagliari",
        
        "route_ref": "3",
        "shelter": "yes"
      },
      "geometry": {
        "type": "Point",
        "coordinates": [
          11.3295931,
          46.4883331
        ]
      },
      "id": "node/18446744073709550921"
    },
    {
      "type": "Feature",
      "properties": {
        
        "highway": "bus_stop",
        "name": "via Palermo 3 - Palermo Str. 3",
        "name:de": "Palermo Str. 3",
        "name:it": "via Palermo 3",
        
        "route_ref": "3",
        "shelter": "yes"
      },
      "geometry": {
        "type": "Point",
        "coordinates": [
          11.3315147,
          46.4889533
        ]
      },
      "id": "node/18446744073709550922"
    },
    {
      "type": "Feature",
      "properties": {
        
        "highway": "bus_stop",
        "name": "via Palermo 2 - Palermo Str. 2",
        "name:de": "Palermo Str. 2",
        "name:it": "via Palermo 2",
        
        "route_ref": "3"
      },
      "geometry": {
        "type": "Point",
        "coordinates": [
          11.3325158,
          46.4918986
        ]
      },
      "id": "node/18446744073709550923"
    },
    {
      "type": "Feature",
      "properties": {
        
        "highway": "bus_stop",
        "name": "via Dalmazia 2 - Dalmatien Str. 2",
        "name:de": "Dalmatien Str. 2",
        "name:it": "via Dalmazia 2",
        
        "route_ref": "3;153",
        "shelter": "yes"
      },
      "geometry": {
        "type": "Point",
        "coordinates": [
          11.3366072,
          46.4916644
        ]
      },
      "id": "node/18446744073709550924"
    },
    {
      "type": "Feature",
      "properties": {
        
        "highway": "bus_stop",
        "name": "via Dalmazia 1 - Dalmatien Str. 1",
        "name:de": "Dalmatien Str. 1",
        "name:it": "via Dalmazia 1",
        
        "route_ref": "3;153"
      },
      "geometry": {
        "type": "Point",
        "coordinates": [
          11.3409383,
          46.4921158
        ]
      },
      "id": "node/18446744073709550925"
    },
    {
      "type": "Feature",
      "properties": {
        
        "highway": "bus_stop",
        "name": "via Torino - Turin Str.",
        "name:de": "Turin Str.",
        "name:it": "via Torino",
        
        "route_ref": "3;153",
        "shelter": "yes"
      },
      "geometry": {
        "type": "Point",
        "coordinates": [
          11.3395978,
          46.4912336
        ]
      },
      "id": "node/18446744073709550926"
    },
    {
      "type": "Feature",
      "properties": {
        
        "highway": "bus_stop",
        "name": "piazza Matteotti - Matteotti Platz",
        "name:de": "Matteotti Platz",
        "name:it": "piazza Matteotti",
        
        "route_ref": "3;153",
        "shelter": "yes"
      },
      "geometry": {
        "type": "Point",
        "coordinates": [
          11.3369128,
          46.4902819
        ]
      },
      "id": "node/18446744073709550927"
    },
    {
      "type": "Feature",
      "properties": {
        
        "highway": "bus_stop",
        "name": "via Milano 1 - Mailand Str. 1",
        "name:de": "Mailand Str. 1",
        "name:it": "via Milano 1",
        
        "route_ref": "3;153",
        "shelter": "yes"
      },
      "geometry": {
        "type": "Point",
        "coordinates": [
          11.3325086,
          46.4895775
        ]
      },
      "id": "node/18446744073709550928"
    },
    {
      "type": "Feature",
      "properties": {
        
        "highway": "bus_stop",
        "name": "via Milano 2 - Mailand Str. 2",
        "name:de": "Mailand Str. 2",
        "name:it": "via Milano 2",
        
        "route_ref": "3;153",
        "shelter": "yes"
      },
      "geometry": {
        "type": "Point",
        "coordinates": [
          11.329665,
          46.48988
        ]
      },
      "id": "node/18446744073709550929"
    },
    {
      "type": "Feature",
      "properties": {
        
        "highway": "bus_stop",
        "name": "via Milano 3 - Mailand Str. 3",
        "name:de": "Mailand Str. 3",
        "name:it": "via Milano 3",
        
        "route_ref": "3;153",
        "shelter": "yes"
      },
      "geometry": {
        "type": "Point",
        "coordinates": [
          11.3267147,
          46.4902128
        ]
      },
      "id": "node/18446744073709550930"
    },
    {
      "type": "Feature",
      "properties": {
        
        "highway": "bus_stop",
        "name": "via Montecassino - Montecassino Str.",
        "name:de": "Montecassino Str.",
        "name:it": "via Montecassino",
        
        "route_ref": "3;6;9;153",
        "shelter": "yes"
      },
      "geometry": {
        "type": "Point",
        "coordinates": [
          11.3254733,
          46.4892094
        ]
      },
      "id": "node/18446744073709550931"
    },
    {
      "type": "Feature",
      "properties": {
        
        "highway": "bus_stop",
        "name": "via Bari 1 - Bari Str. 1",
        "name:de": "Bari Str. 1",
        "name:it": "via Bari 1",
        
        "route_ref": "3;153",
        "shelter": "yes"
      },
      "geometry": {
        "type": "Point",
        "coordinates": [
          11.3269025,
          46.4878317
        ]
      },
      "id": "node/18446744073709550932"
    },
    {
      "type": "Feature",
      "properties": {
        
        "highway": "bus_stop",
        "name": "via Bari 2 - Bari Str. 2",
        "name:de": "Bari Str. 2",
        "name:it": "via Bari 2",
        
        "route_ref": "3;153",
        "shelter": "yes"
      },
      "geometry": {
        "type": "Point",
        "coordinates": [
          11.3245022,
          46.4865031
        ]
      },
      "id": "node/18446744073709550933"
    },
    {
      "type": "Feature",
      "properties": {
        
        "highway": "bus_stop",
        "name": "via Bari 3 - Bari Str. 3",
        "name:de": "Bari Str. 3",
        "name:it": "via Bari 3",
        
        "route_ref": "3;16",
        "shelter": "yes"
      },
      "geometry": {
        "type": "Point",
        "coordinates": [
          11.3220608,
          46.4856061
        ]
      },
      "id": "node/18446744073709550934"
    },