{
  "type": "FeatureCollection",
  "generator": "overpass-turbo",
  "timestamp": "",
  "features": [
    {
      "type": "Feature",
      "properties": {
        "highway": "bus_stop",
        "operator": "SASA",
        "name": "Via Josef Noldin - Josef Noldin Str.",
        "name:de": "Josef Noldin Str.",
        "name:it": "Via Josef Noldin",
        "route_ref": "INT_LAIV"
      },
      "geometry": {
        "type": "Point",
        "coordinates": [
          11.3364389,
          46.4272928
        ]
      }
    },
    {
      "type": "Feature",
      "properties": {
        "highway": "bus_stop",
        "operator": "SASA",
        "name": "Via Josef Noldin - Josef Noldin Str.",
        "name:de": "Josef Noldin Str.",
        "name:it": "Via Josef Noldin",
        "route_ref": "INT_LAIV"
      },
      "geometry": {
        "type": "Point",
        "coordinates": [
          11.3364783,
          46.4272389
        ]
      }
    },
    {
      "type": "Feature",
      "properties": {
        "highway": "bus_stop",
        "operator": "SASA",
        "name": "Ponte Adige Staz. 2 - Sigmundskron Bhf 2",
        "name:de": "Sigmundskron Bhf 2",
        "name:it": "Ponte Adige Staz. 2",
        "route_ref": "9"
      },
      "geometry": {
        "type": "Point",
        "coordinates": [
          11.2980872,
          46.4858594
        ]
      }
    },
    {
      "type": "Feature",
      "properties": {
        "highway": "bus_stop",
        "operator": "SASA",
        "name": "Terlan Bahnhof - Terlano Stazione",
        "name:de": "Terlan Bahnhof",
        "name:it": "Terlano Stazione",
        "route_ref": "NALLES"
      },
      "geometry": {
        "type": "Point",
        "coordinates": [
          11.2492181,
          46.5283672
        ]
      }
    },
    {
      "type": "Feature",
      "properties": {
        "highway": "bus_stop",
        "operator": "SASA",
        "name": "Ackpfeil - Acquaviva",
        "name:de": "Ackpfeil",
        "name:it": "Acquaviva",
        "route_ref": "248"
      },
      "geometry": {
        "type": "Point",
        "coordinates": [
          11.1602744,
          46.5890092
        ]
      }
    },
    {
      "type": "Feature",
      "properties": {
        "highway": "bus_stop",
        "operator": "SASA",
        "name": "Weingartnerstr. 4 - Via Weingartner 4",
        "name:de": "Weingartnerstr. 4",
        "name:it": "Via Weingartner 4",
        "route_ref": "11;12;13"
      },
      "geometry": {
        "type": "Point",
        "coordinates": [
          11.1382817,
          46.6791214
        ]
      }
    },
    {
      "type": "Feature",
      "properties": {
        "highway": "bus_stop",
        "operator": "SASA",
        "name": "Weingartnerstr. 4 - Via Weingartner 4",
        "name:de": "Weingartnerstr. 4",
        "name:it": "Via Weingartner 4",
        "route_ref": "11;12;13;NIGHTSH"
      },
      "geometry": {
        "type": "Point",
        "coordinates": [
          11.1378914,
          46.6791542
        ]
      }
    },
    {
      "type": "Feature",
      "properties": {
        "highway": "bus_stop",
        "operator": "SASA",
        "name": "Tscherms 4 - Cermes 4",
        "name:de": "Tscherms 4",
        "name:it": "Cermes 4",
        "route_ref": "11"
      },
      "geometry": {
        "type": "Point",
        "coordinates": [
          11.1476933,
          46.6276517
        ]
      }
    },
    {
      "type": "Feature",
      "properties": {
        "highway": "bus_stop",
        "operator": "SASA",
        "name": "Tscherms 4 - Cermes 4",
        "name:de": "Tscherms 4",
        "name:it": "Cermes 4",
        "route_ref": "11;NIGHTSH",
        "shelter": "yes"
      },
      "geometry": {
        "type": "Point",
        "coordinates": [
          11.1475167,
          46.6287267
        ]
      }
    },
    {
      "type": "Feature",
      "properties": {
        "highway": "bus_stop",
        "operator": "SASA",
        "name": "Noerderstr. 2 - Via Tramontana 2",
        "name:de": "Noerderstr. 2",
        "name:it": "Via Tramontana 2",
        "route_ref": "12"
      },
      "geometry": {
        "type": "Point",
        "coordinates": [
          11.1295294,
          46.6737144
        ]
      }
    },
    {
      "type": "Feature",
      "properties": {
        "highway": "bus_stop",
        "operator": "SASA",
        "name": "Noerderstr. 2 - Via Tramontana 2",
        "name:de": "Noerderstr. 2",
        "name:it": "Via Tramontana 2",
        "route_ref": "12;NIGHTSH"
      },
      "geometry": {
        "type": "Point",
        "coordinates": [
          11.1295511,
          46.6737967
        ]
      }
    },
    {
      "type": "Feature",
      "properties": {
        "bench": "yes",
        "highway": "bus_stop",
        "operator": "SASA",
        "name": "Kellerei Str. 1 - Via Cantina 1",
        "name:de": "Kellerei Str. 1",
        "name:it": "Via Cantina 1",
        "route_ref": "12"
      },
      "geometry": {
        "type": "Point",
        "coordinates": [
          11.1447453,
          46.6480667
        ]
      }
    },
    {
      "type": "Feature",
      "properties": {
        "highway": "bus_stop",
        "operator": "SASA",
        "name": "Kellerei Str. 1 - Via Cantina 1",
        "name:de": "Kellerei Str. 1",
        "name:it": "Via Cantina 1",
        "route_ref": "12;NIGHTSH"
      },
      "geometry": {
        "type": "Point",
        "coordinates": [
          11.1443636,
          46.64821
        ]
      }
    },
    {
      "type": "Feature",
      "properties": {
        "highway": "bus_stop",
        "operator": "SASA",
        "name": "Kellerei Str. 2 - Via Cantina 2",
        "name:de": "Kellerei Str. 2",
        "name:it": "Via Cantina 2",
        "route_ref": "12"
      },
      "geometry": {
        "type": "Point",
        "coordinates": [
          11.1425928,
          46.6511467
        ]
      }
    },
    {
      "type": "Feature",
      "properties": {
        "highway": "bus_stop",
        "operator": "SASA",
        "name": "Kellerei Str. 2 - Via Cantina 2",
        "name:de": "Kellerei Str. 2",
        "name:it": "Via Cantina 2",
        "route_ref": "12;NIGHTSH"
      },
      "geometry": {
        "type": "Point",
        "coordinates": [
          11.1429622,
          46.6506539
        ]
      }
    },
    {
      "type": "Feature",
      "properties": {
        "highway": "bus_stop",
        "operator": "SASA",
        "name": "Noerderstr. 1 - Via Tramontana 1",
        "name:de": "Noerderstr. 1",
        "name:it": "Via Tramontana 1",
        "route_ref": "12;NIGHTSH"
      },
      "geometry": {
        "type": "Point",
        "coordinates": [
          11.1350528,
          46.6675267
        ]
      }
    },
    {
      "type": "Feature",
      "properties": {
        "highway": "bus_stop",
        "operator": "SASA",
        "name": "Noerderstr. 1 - Via Tramontana 1",
        "name:de": "Noerderstr. 1",
        "name:it": "Via Tramontana 1",
        "route_ref": "12"
      },
      "geometry": {
        "type": "Point",
        "coordinates": [
          11.1350431,
          46.6674125
        ]
      }
    },
    {
      "type": "Feature",
      "properties": {
        "highway": "bus_stop",
        "operator": "SASA",
        "name": "Vadena Birti - Pfatten Birti",
        "name:de": "Pfatten Birti",
        "name:it": "Vadena Birti",
        "route_ref": "VAD_LAIV"
      },
      "geometry": {
        "type": "Point",
        "coordinates": [
          11.29905,
          46.4063614
        ]
      }
    },
    {
      "type": "Feature",
      "properties": {
        "highway": "bus_stop",
        "operator": "SASA",
        "name": "Vadena Comune - Pfatten Gemeinde",
        "name:de": "Pfatten Gemeinde",
        "name:it": "Vadena Comune",
        "route_ref": "VAD_LAIV"
      },
      "geometry": {
        "type": "Point",
        "coordinates": [
          11.3050294,
          46.4137689
        ]
      }
    },
    {
      "type": "Feature",
      "properties": {
        "highway": "bus_stop",
        "operator": "SASA",
        "name": "Vadena Comune - Pfatten Gemeinde",
        "name:de": "Pfatten Gemeinde",
        "name:it": "Vadena Comune",
        "route_ref": "VAD_LAIV"
      },
      "geometry": {
        "type": "Point",
        "coordinates": [
          11.3048272,
          46.4131733
        ]
      }
    },
    {
      "type": "Feature",
      "properties": {
        "highway": "bus_stop",
        "operator": "SASA",
        "name": "Vadena Nuova - Neu Pfatten",
        "name:de": "Neu Pfatten",
        "name:it": "Vadena Nuova",
        "route_ref": "VAD_LAIV"
      },
      "geometry": {
        "type": "Point",
        "coordinates": [
          11.3106092,
          46.4131911
        ]
      }
    },
    {
      "type": "Feature",
      "properties": {
        "highway": "bus_stop",
        "operator": "SASA",
        "name": "Vadena Nuova - Neu Pfatten",
        "name:de": "Neu Pfatten",
        "name:it": "Vadena Nuova",
        "route_ref": "VAD_LAIV",
        "shelter": "yes"
      },
      "geometry": {
        "type": "Point",
        "coordinates": [
          11.3109278,
          46.4132442
        ]
      }
    },
    {
      "type": "Feature",
      "properties": {
        "highway": "bus_stop",
        "operator": "SASA",
        "name": "Ponte Vadena - Pfattner Bruecke",
        "name:de": "Pfattner Bruecke",
        "name:it": "Ponte Vadena",
        "route_ref": "VAD_LAIV"
      },
      "geometry": {
        "type": "Point",
        "coordinates": [
          11.3152969,
          46.4138347
        ]
      }
    },
    {
      "type": "Feature",
      "properties": {
        "highway": "bus_stop",
        "operator": "SASA",
        "name": "Hinterkofel 3",
        "name:de": "Hinterkofel 3",
        "name:it": "Hinterkofel 3",
        "route_ref": "ME-AV;NIGHTSH"
      },
      "geometry": {
        "type": "Point",
        "coordinates": [
          11.2267944,
          46.6172878
        ]
      }
    },
    {
      "type": "Feature",
      "properties": {
        "highway": "bus_stop",
        "operator": "SASA",
        "name": "Hinterkofel 3",
        "name:de": "Hinterkofel 3",
        "name:it": "Hinterkofel 3",
        "route_ref": "ME-AV;NIGHTSH"
      },
      "geometry": {
        "type": "Point",
        "coordinates": [
          11.2265508,
          46.61743
        ]
      }
    },
    {
      "type": "Feature",
      "properties": {
        "highway": "bus_stop",
        "operator": "SASA",
        "name": "Abzw. Falzeben - Bivio Falzeben",
        "name:de": "Abzw. Falzeben",
        "name:it": "Bivio Falzeben",
        "route_ref": "ME-AV;NIGHTSH"
      },
      "geometry": {
        "type": "Point",
        "coordinates": [
          11.2191094,
          46.6484028
        ]
      }
    },
    {
      "type": "Feature",
      "properties": {
        "highway": "bus_stop",
        "operator": "SASA",
        "name": "Laberserstr. 2 - Via Labers 2",
        "name:de": "Laberserstr. 2",
        "name:it": "Via Labers 2",
        "route_ref": "ME-AV;NIGHTSH"
      },
      "geometry": {
        "type": "Point",
        "coordinates": [
          11.2031058,
          46.6612511
        ]
      }
    },
    {
      "type": "Feature",
      "properties": {
        "highway": "bus_stop",
        "operator": "SASA",
        "name": "Laberserstr. 2 - Via Labers 2",
        "name:de": "Laberserstr. 2",
        "name:it": "Via Labers 2",
        "route_ref": "ME-AV;NIGHTSH"
      },
      "geometry": {
        "type": "Point",
        "coordinates": [
          11.2030631,
          46.6608908
        ]
      }
    },
    {
      "type": "Feature",
      "properties": {
        "highway": "bus_stop",
        "operator": "SASA",
        "name": "Gruener Baum",
        "name:de": "Gruener Baum",
        "name:it": "Gruener Baum",
        "route_ref": "ME-AV;NIGHTSH",
        "shelter": "yes"
      },
      "geometry": {
        "type": "Point",
        "coordinates": [
          11.2393217,
          46.60814
        ]
      }
    },
    {
      "type": "Feature",
      "properties": {
        "highway": "bus_stop",
        "operator": "SASA",
        "name": "Voeran Dorf 2 - Verano Paese 2",
        "name:de": "Voeran Dorf 2",
        "name:it": "Verano Paese 2",
        "route_ref": "ME-AV;NIGHTSH"
      },
      "geometry": {
        "type": "Point",
        "coordinates": [
          11.2320897,
          46.6040117
        ]
      }
    },
    {
      "type": "Feature",
      "properties": {
        "highway": "bus_stop",
        "operator": "SASA",
        "name": "Voeran Dorf 2 - Verano Paese 2",
        "name:de": "Voeran Dorf 2",
        "name:it": "Verano Paese 2",
        "route_ref": "ME-AV;NIGHTSH"
      },
      "geometry": {
        "type": "Point",
        "coordinates": [
          11.2328664,
          46.6041308
        ]
      }
    },
    {
      "type": "Feature",
      "properties": {
        "bench": "yes",
        "highway": "bus_stop",
        "operator": "SASA",
        "name": "Voeran Dorf 1 - Verano Paese 1",
        "name:de": "Voeran Dorf 1",
        "name:it": "Verano Paese 1",
        "route_ref": "ME-AV;NIGHTSH"
      },
      "geometry": {
        "type": "Point",
        "coordinates": [
          11.2264636,
          46.6059497
        ]
      }
    },
    {
      "type": "Feature",
      "properties": {
        "highway": "bus_stop",
        "operator": "SASA",
        "name": "Voeran Dorf 1 - Verano Paese 1",
        "name:de": "Voeran Dorf 1",
        "name:it": "Verano Paese 1",
        "route_ref": "ME-AV;NIGHTSH",
        "shelter": "yes"
      },
      "geometry": {
        "type": "Point",
        "coordinates": [
          11.2271725,
          46.6056931
        ]
      }
    },
    {
      "type": "Feature",
      "properties": {
        "highway": "bus_stop",
        "operator": "SASA",
        "name": "Hinterkofel 2",
        "name:de": "Hinterkofel 2",
        "name:it": "Hinterkofel 2",
        "route_ref": "ME-AV;NIGHTSH"
      },
      "geometry": {
        "type": "Point",
        "coordinates": [
          11.2210144,
          46.6149417
        ]
      }
    },
    {
      "type": "Feature",
      "properties": {
        "highway": "bus_stop",
        "operator": "SASA",
        "name": "Hinterkofel 2",
        "name:de": "Hinterkofel 2",
        "name:it": "Hinterkofel 2",
        "route_ref": "ME-AV;NIGHTSH"
      },
      "geometry": {
        "type": "Point",
        "coordinates": [
          11.2208767,
          46.6147739
        ]
      }
    },
    {
      "type": "Feature",
      "properties": {
        "bench": "yes",
        "highway": "bus_stop",
        "operator": "SASA",
        "name": "Hinterkofel 1",
        "name:de": "Hinterkofel 1",
        "name:it": "Hinterkofel 1",
        "route_ref": "ME-AV;NIGHTSH"
      },
      "geometry": {
        "type": "Point",
        "coordinates": [
          11.2095044,
          46.6258811
        ]
      }
    },
    {
      "type": "Feature",
      "properties": {
        "bench": "yes",
        "highway": "bus_stop",
        "operator": "SASA",
        "name": "Hinterkofel 1",
        "name:de": "Hinterkofel 1",
        "name:it": "Hinterkofel 1",
        "route_ref": "ME-AV;NIGHTSH"
      },
      "geometry": {
        "type": "Point",
        "coordinates": [
          11.2096794,
          46.6260058
        ]
      }
    },
    {
      "type": "Feature",
      "properties": {
        "highway": "bus_stop",
        "operator": "SASA",
        "name": "Voeranstr. - Via Verano",
        "name:de": "Voeranstr.",
        "name:it": "Via Verano",
        "route_ref": "ME-AV;NIGHTSH"
      },
      "geometry": {
        "type": "Point",
        "coordinates": [
          11.2173614,
          46.6349822
        ]
      }
    },
    {
      "type": "Feature",
      "properties": {
        "highway": "bus_stop",
        "operator": "SASA",
        "name": "Voeranstr. - Via Verano",
        "name:de": "Voeranstr.",
        "name:it": "Via Verano",
        "route_ref": "ME-AV;NIGHTSH"
      },
      "geometry": {
        "type": "Point",
        "coordinates": [
          11.2174436,
          46.6349192
        ]
      }
    },
    {
      "type": "Feature",
      "properties": {
        "bench": "yes",
        "highway": "bus_stop",
        "operator": "SASA",
        "name": "Haslachstr. 4 - Via Aslago 4",
        "name:de": "Haslachstr. 4",
        "name:it": "Via Aslago 4",
        "route_ref": "CROCE T"
      },
      "geometry": {
        "type": "Point",
        "coordinates": [
          11.1541639,
          46.7001275
        ]
      }
    },
    {
      "type": "Feature",
      "properties": {
        "highway": "bus_stop",
        "operator": "SASA",
        "name": "Haslachstr. 3 - Via Aslago 3",
        "name:de": "Haslachstr. 3",
        "name:it": "Via Aslago 3",
        "route_ref": "CROCE T"
      },
      "geometry": {
        "type": "Point",
        "coordinates": [
          11.1524317,
          46.6978278
        ]
      }
    },
    {
      "type": "Feature",
      "properties": {
        "highway": "bus_stop",
        "operator": "SASA",
        "name": "Seilbahn Hochmut - Funivia Muta",
        "name:de": "Seilbahn Hochmut",
        "name:it": "Funivia Muta",
        "route_ref": "CROCE T"
      },
      "geometry": {
        "type": "Point",
        "coordinates": [
          11.1528756,
          46.6964906
        ]
      }
    },
    {
      "type": "Feature",
      "properties": {
        "highway": "bus_stop",
        "operator": "SASA",
        "name": "Haslachstr. 2 - Via Aslago 2",
        "name:de": "Haslachstr. 2",
        "name:it": "Via Aslago 2",
        "route_ref": "CROCE T"
      },
      "geometry": {
        "type": "Point",
        "coordinates": [
          11.1543253,
          46.6947308
        ]
      }
    },
    {
      "type": "Feature",
      "properties": {
        "highway": "bus_stop",
        "operator": "SASA",
        "name": "Nals Feuerwehr Parkplatz - Nalles parcheggio pompieri",
        "name:de": "Nals Feuerwehr Parkplatz",
        "name:it": "Nalles parcheggio pompieri",
        "route_ref": "248;NALLES",
        "shelter": "yes"
      },
      "geometry": {
        "type": "Point",
        "coordinates": [
          11.2059736,
          46.5434144
        ]
      }
    },
    {
      "type": "Feature",
      "properties": {
        "highway": "bus_stop",
        "operator": "SASA",
        "name": "Zum Hirschen",
        "name:de": "Zum Hirschen",
        "name:it": "Zum Hirschen",
        "route_ref": "NALLES"
      },
      "geometry": {
        "type": "Point",
        "coordinates": [
          11.2210328,
          46.5569831
        ]
      }
    },
    {
      "type": "Feature",
      "properties": {
        "highway": "bus_stop",
        "operator": "SASA",
        "name": "Zum Hirschen",
        "name:de": "Zum Hirschen",
        "name:it": "Zum Hirschen",
        "route_ref": "NALLES"
      },
      "geometry": {
        "type": "Point",
        "coordinates": [
          11.2201622,
          46.5561928
        ]
      }
    },
    {
      "type": "Feature",
      "properties": {
        "highway": "bus_stop",
        "operator": "SASA",
        "name": "Andrian St.Urban Platz - Andriano p.zza.S.Urbano",
        "name:de": "Andrian St.Urban Platz",
        "name:it": "Andriano p.zza.S.Urbano",
        "route_ref": "NALLES"
      },
      "geometry": {
        "type": "Point",
        "coordinates": [
          11.2332828,
          46.5187047
        ]
      }
    },
    {
      "type": "Feature",
      "properties": {
        "highway": "bus_stop",
        "operator": "SASA",
        "name": "Siebeneich HW Zone - Settequerce Zona Artig.",
        "name:de": "Siebeneich HW Zone",
        "name:it": "Settequerce Zona Artig.",
        "route_ref": "BZ-ME;NALLES",
        "shelter": "yes"
      },
      "geometry": {
        "type": "Point",
        "coordinates": [
          11.2701778,
          46.5138781
        ]
      }
    },
    {
      "type": "Feature",
      "properties": {
        "highway": "bus_stop",
        "operator": "SASA",
        "name": "Siebeneich HW Zone - Settequerce Zona Artig.",
        "name:de": "Siebeneich HW Zone",
        "name:it": "Settequerce Zona Artig.",
        "route_ref": "BZ-ME;NALLES",
        "shelter": "yes"
      },
      "geometry": {
        "type": "Point",
        "coordinates": [
          11.2691694,
          46.5142661
        ]
      }
    },
    {
      "type": "Feature",
      "properties": {
        "highway": "bus_stop",
        "operator": "SASA",
        "name": "Burgstall Winkelau - Postal Winkelau",
        "name:de": "Burgstall Winkelau",
        "name:it": "Postal Winkelau",
        "route_ref": "BZ-ME;CITY LA;NIGHTSH",
        "shelter": "yes"
      },
      "geometry": {
        "type": "Point",
        "coordinates": [
          11.2004122,
          46.5967031
        ]
      }
    },
    {
      "type": "Feature",
      "properties": {
        "highway": "bus_stop",
        "operator": "SASA",
        "name": "Burgstall Winkelau - Postal Winkelau",
        "name:de": "Burgstall Winkelau",
        "name:it": "Postal Winkelau",
        "route_ref": "BZ-ME;CITY LA;NIGHTSH",
        "shelter": "yes"
      },
      "geometry": {
        "type": "Point",
        "coordinates": [
          11.2003194,
          46.5967975
        ]
      }
    },
    {
      "type": "Feature",
      "properties": {
        "highway": "bus_stop",
        "operator": "SASA",
        "name": "Bergstr. - Vicolo al Monte",
        "name:de": "Bergstr.",
        "name:it": "Vicolo al Monte",
        "route_ref": "BZ-ME;NIGHTSH",
        "shelter": "yes"
      },
      "geometry": {
        "type": "Point",
        "coordinates": [
          11.2172725,
          46.5718525
        ]
      }
    },
    {
      "type": "Feature",
      "properties": {
        "highway": "bus_stop",
        "operator": "SASA",
        "name": "Bergstr. - Vicolo al Monte",
        "name:de": "Bergstr.",
        "name:it": "Vicolo al Monte",
        "route_ref": "BZ-ME;NIGHTSH",
        "shelter": "yes"
      },
      "geometry": {
        "type": "Point",
        "coordinates": [
          11.2172289,
          46.5718339
        ]
      }
    },
    {
      "type": "Feature",
      "properties": {
        "highway": "bus_stop",
        "operator": "SASA",
        "name": "Seilbahn Moelten - Funivia Meltina",
        "name:de": "Seilbahn Moelten",
        "name:it": "Funivia Meltina",
        "route_ref": "BZ-ME;NALLES;NIGHTSH",
        "shelter": "yes"
      },
      "geometry": {
        "type": "Point",
        "coordinates": [
          11.2242642,
          46.5630647
        ]
      }
    },
    {
      "type": "Feature",
      "properties": {
        "highway": "bus_stop",
        "operator": "SASA",
        "name": "Vilpian - Vilpiano",
        "name:de": "Vilpian",
        "name:it": "Vilpiano",
        "route_ref": "BZ-ME;NALLES",
        "shelter": "yes"
      },
      "geometry": {
        "type": "Point",
        "coordinates": [
          11.2238256,
          46.5613453
        ]
      }
    },
    {
      "type": "Feature",
      "properties": {
        "highway": "bus_stop",
        "operator": "SASA",
        "name": "Vilpian - Vilpiano",
        "name:de": "Vilpian",
        "name:it": "Vilpiano",
        "route_ref": "BZ-ME;NALLES",
        "shelter": "yes"
      },
      "geometry": {
        "type": "Point",
        "coordinates": [
          11.2235006,
          46.5596372
        ]
      }
    },
    {
      "type": "Feature",
      "properties": {
        "highway": "bus_stop",
        "operator": "SASA",
        "name": "Sportzone - Zona sportiva",
        "name:de": "Sportzone",
        "name:it": "Zona sportiva",
        "route_ref": "BZ-ME;NALLES"
      },
      "geometry": {
        "type": "Point",
        "coordinates": [
          11.2236675,
          46.5558047
        ]
      }
    },
    {
      "type": "Feature",
      "properties": {
        "highway": "bus_stop",
        "operator": "SASA",
        "name": "Sportzone - Zona sportiva",
        "name:de": "Sportzone",
        "name:it": "Zona sportiva",
        "route_ref": "BZ-ME;NALLES",
        "shelter": "yes"
      },
      "geometry": {
        "type": "Point",
        "coordinates": [
          11.22418,
          46.5552114
        ]
      }
    },
    {
      "type": "Feature",
      "properties": {
        "highway": "bus_stop",
        "operator": "SASA",
        "name": "Vilpian Schlemmer - Vilpiano Schlemmer",
        "name:de": "Vilpian Schlemmer",
        "name:it": "Vilpiano Schlemmer",
        "route_ref": "BZ-ME;NALLES"
      },
      "geometry": {
        "type": "Point",
        "coordinates": [
          11.2295569,
          46.5520103
        ]
      }
    },
    {
      "type": "Feature",
      "properties": {
        "highway": "bus_stop",
        "operator": "SASA",
        "name": "Vilpian Schlemmer - Vilpiano Schlemmer",
        "name:de": "Vilpian Schlemmer",
        "name:it": "Vilpiano Schlemmer",
        "route_ref": "BZ-ME;NALLES",
        "shelter": "yes"
      },
      "geometry": {
        "type": "Point",
        "coordinates": [
          11.2296589,
          46.5519236
        ]
      }
    },
    {
      "type": "Feature",
      "properties": {
        "highway": "bus_stop",
        "operator": "SASA",
        "name": "Terlan Weinstube - Terlano Weinstube",
        "name:de": "Terlan Weinstube",
        "name:it": "Terlano Weinstube",
        "route_ref": "BZ-ME;NALLES",
        "shelter": "yes"
      },
      "geometry": {
        "type": "Point",
        "coordinates": [
          11.2383825,
          46.5449686
        ]
      }
    },
    {
      "type": "Feature",
      "properties": {
        "highway": "bus_stop",
        "operator": "SASA",
        "name": "Terlan Weinstube - Terlano Weinstube",
        "name:de": "Terlan Weinstube",
        "name:it": "Terlano Weinstube",
        "route_ref": "BZ-ME;NALLES",
        "shelter": "yes"
      },
      "geometry": {
        "type": "Point",
        "coordinates": [
          11.23842,
          46.5436083
        ]
      }
    },
    {
      "type": "Feature",
      "properties": {
        "highway": "bus_stop",
        "operator": "SASA",
        "name": "Terlan Winkler Hof - Terlano Winkler Hof",
        "name:de": "Terlan Winkler Hof",
        "name:it": "Terlano Winkler Hof",
        "route_ref": "BZ-ME;NALLES"
      },
      "geometry": {
        "type": "Point",
        "coordinates": [
          11.2421528,
          46.5365275
        ]
      }
    },
    {
      "type": "Feature",
      "properties": {
        "highway": "bus_stop",
        "operator": "SASA",
        "name": "Terlan Winkler Hof - Terlano Winkler Hof",
        "name:de": "Terlan Winkler Hof",
        "name:it": "Terlano Winkler Hof",
        "route_ref": "BZ-ME;NALLES"
      },
      "geometry": {
        "type": "Point",
        "coordinates": [
          11.2412006,
          46.5371497
        ]
      }
    },
    {
      "type": "Feature",
      "properties": {
        "highway": "bus_stop",
        "operator": "SASA",
        "name": "Terlan Zentrum - Terlano Centro",
        "name:de": "Terlan Zentrum",
        "name:it": "Terlano Centro",
        "route_ref": "BZ-ME;NALLES",
        "shelter": "yes"
      },
      "geometry": {
        "type": "Point",
        "coordinates": [
          11.2492022,
          46.5293922
        ]
      }
    },
    {
      "type": "Feature",
      "properties": {
        "highway": "bus_stop",
        "operator": "SASA",
        "name": "Terlan Zentrum - Terlano Centro",
        "name:de": "Terlan Zentrum",
        "name:it": "Terlano Centro",
        "route_ref": "BZ-ME;NALLES",
        "shelter": "yes"
      },
      "geometry": {
        "type": "Point",
        "coordinates": [
          11.2496594,
          46.5293394
        ]
      }
    },
    {
      "type": "Feature",
      "properties": {
        "highway": "bus_stop",
        "operator": "SASA",
        "name": "Klaus Oberspeiser - Chiusa Oberspeiser",
        "name:de": "Klaus Oberspeiser",
        "name:it": "Chiusa Oberspeiser",
        "route_ref": "BZ-ME;NALLES",
        "shelter": "yes"
      },
      "geometry": {
        "type": "Point",
        "coordinates": [
          11.2605808,
          46.5195864
        ]
      }
    },
    {
      "type": "Feature",
      "properties": {
        "highway": "bus_stop",
        "operator": "SASA",
        "name": "Klaus Oberspeiser - Chiusa Oberspeiser",
        "name:de": "Klaus Oberspeiser",
        "name:it": "Chiusa Oberspeiser",
        "route_ref": "BZ-ME;NALLES",
        "shelter": "yes"
      },
      "geometry": {
        "type": "Point",
        "coordinates": [
          11.2604872,
          46.5195972
        ]
      }
    },
    {
      "type": "Feature",
      "properties": {
        "highway": "bus_stop",
        "operator": "SASA",
        "name": "Siebeneich - Settequerce",
        "name:de": "Siebeneich",
        "name:it": "Settequerce",
        "route_ref": "BZ-ME;NALLES",
        "shelter": "yes"
      },
      "geometry": {
        "type": "Point",
        "coordinates": [
          11.2743767,
          46.5109722
        ]
      }
    },
    {
      "type": "Feature",
      "properties": {
        "highway": "bus_stop",
        "operator": "SASA",
        "name": "Siebeneich - Settequerce",
        "name:de": "Siebeneich",
        "name:it": "Settequerce",
        "route_ref": "BZ-ME;NALLES"
      },
      "geometry": {
        "type": "Point",
        "coordinates": [
          11.2743292,
          46.5108556
        ]
      }
    },
    {
      "type": "Feature",
      "properties": {
        "highway": "bus_stop",
        "operator": "SASA",
        "name": "Via Merano 94 - Meraner Str. 94",
        "name:de": "Meraner Str. 94",
        "name:it": "Via Merano 94",
        "route_ref": "BZ-ME;NALLES"
      },
      "geometry": {
        "type": "Point",
        "coordinates": [
          11.2913169,
          46.5057811
        ]
      }
    },
    {
      "type": "Feature",
      "properties": {
        "highway": "bus_stop",
        "operator": "SASA",
        "name": "Via Merano 94 - Meraner Str. 94",
        "name:de": "Meraner Str. 94",
        "name:it": "Via Merano 94",
        "route_ref": "BZ-ME;NALLES"
      },
      "geometry": {
        "type": "Point",
        "coordinates": [
          11.2921819,
          46.5054342
        ]
      }
    },
    {
      "type": "Feature",
      "properties": {
        "highway": "bus_stop",
        "operator": "SASA",
        "name": "Bagni di Zolfo - Schwefelbad",
        "name:de": "Schwefelbad",
        "name:it": "Bagni di Zolfo",
        "route_ref": "BZ-ME;NALLES"
      },
      "geometry": {
        "type": "Point",
        "coordinates": [
          11.2956308,
          46.5039933
        ]
      }
    },
    {
      "type": "Feature",
      "properties": {
        "highway": "bus_stop",
        "operator": "SASA",
        "name": "Bagni di Zolfo - Schwefelbad",
        "name:de": "Schwefelbad",
        "name:it": "Bagni di Zolfo",
        "route_ref": "BZ-ME;NALLES"
      },
      "geometry": {
        "type": "Point",
        "coordinates": [
          11.2957058,
          46.5038428
        ]
      }
    },
    {
      "type": "Feature",
      "properties": {
        "highway": "bus_stop",
        "operator": "SASA",
        "name": "S. Maurizio Moosb. - Moritzing Moosb.",
        "name:de": "Moritzing Moosb.",
        "name:it": "S. Maurizio Moosb.",
        "route_ref": "BZ-ME;NALLES"
      },
      "geometry": {
        "type": "Point",
        "coordinates": [
          11.2998656,
          46.5010217
        ]
      }
    },
    {
      "type": "Feature",
      "properties": {
        "highway": "bus_stop",
        "operator": "SASA",
        "name": "S. Maurizio Moosb. - Moritzing Moosb.",
        "name:de": "Moritzing Moosb.",
        "name:it": "S. Maurizio Moosb.",
        "route_ref": "BZ-ME;NALLES"
      },
      "geometry": {
        "type": "Point",
        "coordinates": [
          11.3001583,
          46.5007539
        ]
      }
    },
    {
      "type": "Feature",
      "properties": {
        "highway": "bus_stop",
        "operator": "SASA",
        "name": "S.Maurizio Pircher - Moritzing Pircher",
        "name:de": "Moritzing Pircher",
        "name:it": "S.Maurizio Pircher",
        "route_ref": "BZ-ME;NALLES"
      },
      "geometry": {
        "type": "Point",
        "coordinates": [
          11.3032133,
          46.4987111
        ]
      }
    },
    {
      "type": "Feature",
      "properties": {
        "highway": "bus_stop",
        "operator": "SASA",
        "name": "S.Maurizio Pircher - Moritzing Pircher",
        "name:de": "Moritzing Pircher",
        "name:it": "S.Maurizio Pircher",
        "route_ref": "BZ-ME;NALLES",
        "shelter": "yes"
      },
      "geometry": {
        "type": "Point",
        "coordinates": [
          11.3034419,
          46.4984386
        ]
      }
    },
    {
      "type": "Feature",
      "properties": {
        "highway": "bus_stop",
        "operator": "SASA",
        "name": "Kuenserstr. (Ungericht) - Via Caines (Ungericht)",
        "name:de": "Kuenserstr. (Ungericht)",
        "name:it": "Via Caines (Ungericht)",
        "route_ref": "VERNURIO"
      },
      "geometry": {
        "type": "Point",
        "coordinates": [
          11.1671689,
          46.7002656
        ]
      }
    },
    {
      "type": "Feature",
      "properties": {
        "highway": "bus_stop",
        "operator": "SASA",
        "name": "Kuenserstr. (Sonnenhof) - Via Caines (Sonnenhof)",
        "name:de": "Kuenserstr. (Sonnenhof)",
        "name:it": "Via Caines (Sonnenhof)",
        "route_ref": "VERNURIO"
      },
      "geometry": {
        "type": "Point",
        "coordinates": [
          11.1703303,
          46.7003756
        ]
      }
    },
    {
      "type": "Feature",
      "properties": {
        "highway": "bus_stop",
        "operator": "SASA",
        "name": "Kuenserstr. (Ungericht) - Via Caines (Ungericht)",
        "name:de": "Kuenserstr. (Ungericht)",
        "name:it": "Via Caines (Ungericht)",
        "route_ref": "VERNURIO"
      },
      "geometry": {
        "type": "Point",
        "coordinates": [
          11.1674144,
          46.70029
        ]
      }
    },
    {
      "type": "Feature",
      "properties": {
        "highway": "bus_stop",
        "operator": "SASA",
        "name": "Kuenserstr. Feuerwehr - Via Caines Vigili del Fuoco",
        "name:de": "Kuenserstr. Feuerwehr",
        "name:it": "Via Caines Vigili del Fuoco",
        "route_ref": "VERNURIO"
      },
      "geometry": {
        "type": "Point",
        "coordinates": [
          11.1716022,
          46.6976067
        ]
      }
    },
    {
      "type": "Feature",
      "properties": {
        "highway": "bus_stop",
        "operator": "SASA",
        "name": "Kuenserstr. Feuerwehr - Via Caines Vigili del Fuoco",
        "name:de": "Kuenserstr. Feuerwehr",
        "name:it": "Via Caines Vigili del Fuoco",
        "route_ref": "VERNURIO"
      },
      "geometry": {
        "type": "Point",
        "coordinates": [
          11.1717719,
          46.6975961
        ]
      }
    },
    {
      "type": "Feature",
      "properties": {
        "highway": "bus_stop",
        "operator": "SASA",
        "name": "Karl Wolf Str. 1A - Via Karl Wolf 1A",
        "name:de": "Karl Wolf Str. 1A",
        "name:it": "Via Karl Wolf 1A",
        "route_ref": "2;3"
      },
      "geometry": {
        "type": "Point",
        "coordinates": [
          11.1567681,
          46.6770169
        ]
      }
    },
    {
      "type": "Feature",
      "properties": {
        "highway": "bus_stop",
        "operator": "SASA",
        "name": "Karl Wolf Str. 1A - Via Karl Wolf 1A",
        "name:de": "Karl Wolf Str. 1A",
        "name:it": "Via Karl Wolf 1A",
        "route_ref": "3;6;12"
      },
      "geometry": {
        "type": "Point",
        "coordinates": [
          11.1566847,
          46.6771833
        ]
      }
    },
    {
      "type": "Feature",
      "properties": {
        "highway": "bus_stop",
        "operator": "SASA",
        "name": "Noerderstr. 3 - Via Tramontana 3",
        "name:de": "Noerderstr. 3",
        "name:it": "Via Tramontana 3",
        "route_ref": "12"
      },
      "geometry": {
        "type": "Point",
        "coordinates": [
          11.1215439,
          46.6759281
        ]
      }
    },
    {
      "type": "Feature",
      "properties": {
        "highway": "bus_stop",
        "operator": "SASA",
        "name": "Noerderstr. 3 - Via Tramontana 3",
        "name:de": "Noerderstr. 3",
        "name:it": "Via Tramontana 3",
        "route_ref": "12;NIGHTSH"
      },
      "geometry": {
        "type": "Point",
        "coordinates": [
          11.1216428,
          46.6759686
        ]
      }
    },
    {
      "type": "Feature",
      "properties": {
        "highway": "bus_stop",
        "operator": "SASA",
        "name": "Schenna Dorf - Scena Paese",
        "name:de": "Schenna Dorf",
        "name:it": "Scena Paese",
        "route_ref": "NIGHTSH",
        "shelter": "yes"
      },
      "geometry": {
        "type": "Point",
        "coordinates": [
          11.1876314,
          46.6897089
        ]
      }
    },
    {
      "type": "Feature",
      "properties": {
        "highway": "bus_stop",
        "operator": "SASA",
        "name": "Schennastr. 8 - Via Scena 8",
        "name:de": "Schennastr. 8",
        "name:it": "Via Scena 8",
        "route_ref": "NIGHTSH"
      },
      "geometry": {
        "type": "Point",
        "coordinates": [
          11.1891469,
          46.6846056
        ]
      }
    },
    {
      "type": "Feature",
      "properties": {
        "bench": "yes",
        "highway": "bus_stop",
        "operator": "SASA",
        "name": "Schennastr. 7 - Via Scena 7",
        "name:de": "Schennastr. 7",
        "name:it": "Via Scena 7",
        "route_ref": "NIGHTSH"
      },
      "geometry": {
        "type": "Point",
        "coordinates": [
          11.1894236,
          46.6813433
        ]
      }
    },
    {
      "type": "Feature",
      "properties": {
        "highway": "bus_stop",
        "operator": "SASA",
        "name": "Schennastr. 6 - Via Scena 6",
        "name:de": "Schennastr. 6",
        "name:it": "Via Scena 6",
        "route_ref": "NIGHTSH"
      },
      "geometry": {
        "type": "Point",
        "coordinates": [
          11.1891442,
          46.6771714
        ]
      }
    },
    {
      "type": "Feature",
      "properties": {
        "highway": "bus_stop",
        "operator": "SASA",
        "name": "Schennastr. 5 - Via Scena 5",
        "name:de": "Schennastr. 5",
        "name:it": "Via Scena 5",
        "route_ref": "NIGHTSH"
      },
      "geometry": {
        "type": "Point",
        "coordinates": [
          11.1889417,
          46.6749417
        ]
      }
    },
    {
      "type": "Feature",
      "properties": {
        "bench": "yes",
        "highway": "bus_stop",
        "operator": "SASA",
        "name": "Schennastr. 4 - Via Scena 4",
        "name:de": "Schennastr. 4",
        "name:it": "Via Scena 4",
        "route_ref": "NIGHTSH"
      },
      "geometry": {
        "type": "Point",
        "coordinates": [
          11.1900478,
          46.6719967
        ]
      }
    },
    {
      "type": "Feature",
      "properties": {
        "highway": "bus_stop",
        "operator": "SASA",
        "name": "Algund Schulen - Lagundo scuole",
        "name:de": "Algund Schulen",
        "name:it": "Lagundo scuole",
        "route_ref": "11;12"
      },
      "geometry": {
        "type": "Point",
        "coordinates": [
          11.1189558,
          46.6813647
        ]
      }
    },
    {
      "type": "Feature",
      "properties": {
        "bench": "yes",
        "highway": "bus_stop",
        "operator": "SASA",
        "name": "Thalguter Str. - Via Thalguter",
        "name:de": "Thalguter Str.",
        "name:it": "Via Thalguter",
        "route_ref": "13"
      },
      "geometry": {
        "type": "Point",
        "coordinates": [
          11.1252422,
          46.6805869
        ]
      }
    },
    {
      "type": "Feature",
      "properties": {
        "highway": "bus_stop",
        "operator": "SASA",
        "name": "Ponte Adige - Sigmundskron",
        "name:de": "Sigmundskron",
        "name:it": "Ponte Adige",
        "route_ref": "9"
      },
      "geometry": {
        "type": "Point",
        "coordinates": [
          11.2998711,
          46.4854261
        ]
      }
    },
    {
      "type": "Feature",
      "properties": {
        "highway": "bus_stop",
        "operator": "SASA",
        "name": "Ponte Adige - Sigmundskron",
        "name:de": "Sigmundskron",
        "name:it": "Ponte Adige",
        "route_ref": "9"
      },
      "geometry": {
        "type": "Point",
        "coordinates": [
          11.2999472,
          46.4853714
        ]
      }
    },
    {
      "type": "Feature",
      "properties": {
        "highway": "bus_stop",
        "operator": "SASA",
        "name": "Karneid Dorf - Cornedo Paese",
        "name:de": "Karneid Dorf",
        "name:it": "Cornedo Paese",
        "route_ref": "13"
      },
      "geometry": {
        "type": "Point",
        "coordinates": [
          11.4038514,
          46.4892261
        ]
      }
    },
    {
      "type": "Feature",
      "properties": {
        "highway": "bus_stop",
        "operator": "SASA",
        "name": "Karneid Dorf - Cornedo Paese",
        "name:de": "Karneid Dorf",
        "name:it": "Cornedo Paese",
        "route_ref": "13",
        "shelter": "yes"
      },
      "geometry": {
        "type": "Point",
        "coordinates": [
          11.4047086,
          46.4893142
        ]
      }
    },
    {
      "type": "Feature",
      "properties": {
        "highway": "bus_stop",
        "operator": "SASA",
        "name": "Kardaun Karneiderstr. - Cardano via Cornedo",
        "name:de": "Kardaun Karneiderstr.",
        "name:it": "Cardano via Cornedo",
        "route_ref": "13"
      },
      "geometry": {
        "type": "Point",
        "coordinates": [
          11.3944411,
          46.4920606
        ]
      }
    },
    {
      "type": "Feature",
      "properties": {
        "highway": "bus_stop",
        "operator": "SASA",
        "name": "Kardaun Karneiderstr. - Cardano via Cornedo",
        "name:de": "Kardaun Karneiderstr.",
        "name:it": "Cardano via Cornedo",
        "route_ref": "13"
      },
      "geometry": {
        "type": "Point",
        "coordinates": [
          11.3937519,
          46.4922981
        ]
      }
    },
    {
      "type": "Feature",
      "properties": {
        "highway": "bus_stop",
        "operator": "SASA",
        "name": "Prissian Dorf - Prissiano Paese",
        "name:de": "Prissian Dorf",
        "name:it": "Prissiano Paese",
        "route_ref": "248",
        "shelter": "yes"
      },
      "geometry": {
        "type": "Point",
        "coordinates": [
          11.179445,
          46.5541575
        ]
      }
    },
    {
      "type": "Feature",
      "properties": {
        "highway": "bus_stop",
        "operator": "SASA",
        "name": "Tisens Gemeinde - Tesimo Comune",
        "name:de": "Tisens Gemeinde",
        "name:it": "Tesimo Comune",
        "route_ref": "248"
      },
      "geometry": {
        "type": "Point",
        "coordinates": [
          11.1695456,
          46.5636417
        ]
      }
    },
    {
      "type": "Feature",
      "properties": {
        "highway": "bus_stop",
        "operator": "SASA",
        "name": "Tisens Gemeinde - Tesimo Comune",
        "name:de": "Tisens Gemeinde",
        "name:it": "Tesimo Comune",
        "route_ref": "248"
      },
      "geometry": {
        "type": "Point",
        "coordinates": [
          11.1694439,
          46.5635628
        ]
      }
    },
    {
      "type": "Feature",
      "properties": {
        "highway": "bus_stop",
        "operator": "SASA",
        "name": "Tisens (Tisog) - Tesimo (Tisog)",
        "name:de": "Tisens (Tisog)",
        "name:it": "Tesimo (Tisog)",
        "route_ref": "248"
      },
      "geometry": {
        "type": "Point",
        "coordinates": [
          11.1681447,
          46.5679128
        ]
      }
    },
    {
      "type": "Feature",
      "properties": {
        "highway": "bus_stop",
        "operator": "SASA",
        "name": "Tisens (Tisog) - Tesimo (Tisog)",
        "name:de": "Tisens (Tisog)",
        "name:it": "Tesimo (Tisog)",
        "route_ref": "248"
      },
      "geometry": {
        "type": "Point",
        "coordinates": [
          11.1676956,
          46.5682486
        ]
      }
    },
    {
      "type": "Feature",
      "properties": {
        "highway": "bus_stop",
        "operator": "SASA",
        "name": "Naraun - Narano",
        "name:de": "Naraun",
        "name:it": "Narano",
        "route_ref": "248"
      },
      "geometry": {
        "type": "Point",
        "coordinates": [
          11.1617603,
          46.574585
        ]
      }
    },
    {
      "type": "Feature",
      "properties": {
        "highway": "bus_stop",
        "operator": "SASA",
        "name": "Naraun - Narano",
        "name:de": "Naraun",
        "name:it": "Narano",
        "route_ref": "248"
      },
      "geometry": {
        "type": "Point",
        "coordinates": [
          11.1618208,
          46.5748
        ]
      }
    },
    {
      "type": "Feature",
      "properties": {
        "bench": "yes",
        "highway": "bus_stop",
        "operator": "SASA",
        "name": "Zollstr. 2 - Via Dogana 2",
        "name:de": "Zollstr. 2",
        "name:it": "Via Dogana 2",
        "route_ref": "11;CITY LA"
      },
      "geometry": {
        "type": "Point",
        "coordinates": [
          11.1654003,
          46.6074978
        ]
      }
    },
    {
      "type": "Feature",
      "properties": {
        "bench": "yes",
        "highway": "bus_stop",
        "operator": "SASA",
        "name": "Zollstr. 2 - Via Dogana 2",
        "name:de": "Zollstr. 2",
        "name:it": "Via Dogana 2",
        "route_ref": "11;CITY LA"
      },
      "geometry": {
        "type": "Point",
        "coordinates": [
          11.1649325,
          46.6073725
        ]
      }
    },
    {
      "type": "Feature",
      "properties": {
        "highway": "bus_stop",
        "operator": "SASA",
        "name": "Sankt Anna - Sant'Anna",
        "name:de": "Sankt Anna",
        "name:it": "Sant'Anna",
        "route_ref": "11",
        "shelter": "yes"
      },
      "geometry": {
        "type": "Point",
        "coordinates": [
          11.1600922,
          46.6075636
        ]
      }
    },
    {
      "type": "Feature",
      "properties": {
        "highway": "bus_stop",
        "operator": "SASA",
        "name": "St. Veit - San Vito",
        "name:de": "St. Veit",
        "name:it": "San Vito",
        "route_ref": "13"
      },
      "geometry": {
        "type": "Point",
        "coordinates": [
          11.4034322,
          46.4845142
        ]
      }
    },
    {
      "type": "Feature",
      "properties": {
        "highway": "bus_stop",
        "operator": "SASA",
        "name": "Kardaun Handwerkerz. - Cardano zona Art.",
        "name:de": "Kardaun Handwerkerz.",
        "name:it": "Cardano zona Art.",
        "route_ref": "13"
      },
      "geometry": {
        "type": "Point",
        "coordinates": [
          11.3990806,
          46.4920639
        ]
      }
    },
    {
      "type": "Feature",
      "properties": {
        "highway": "bus_stop",
        "operator": "SASA",
        "name": "Kardaun Handwerkerz. - Cardano zona Art.",
        "name:de": "Kardaun Handwerkerz.",
        "name:it": "Cardano zona Art.",
        "route_ref": "13"
      },
      "geometry": {
        "type": "Point",
        "coordinates": [
          11.3991578,
          46.4921353
        ]
      }
    },
    {
      "type": "Feature",
      "properties": {
        "highway": "bus_stop",
        "operator": "SASA",
        "name": "Stroblwiese 1",
        "name:de": "Stroblwiese 1",
        "name:it": "Stroblwiese 1",
        "route_ref": "13"
      },
      "geometry": {
        "type": "Point",
        "coordinates": [
          11.4059525,
          46.4840606
        ]
      }
    },
    {
      "type": "Feature",
      "properties": {
        "highway": "bus_stop",
        "operator": "SASA",
        "name": "Stroblwiese 1",
        "name:de": "Stroblwiese 1",
        "name:it": "Stroblwiese 1",
        "route_ref": "13"
      },
      "geometry": {
        "type": "Point",
        "coordinates": [
          11.4059392,
          46.4840022
        ]
      }
    },
    {
      "type": "Feature",
      "properties": {
        "highway": "bus_stop",
        "operator": "SASA",
        "name": "St. Veit - San Vito",
        "name:de": "St. Veit",
        "name:it": "San Vito",
        "route_ref": "13"
      },
      "geometry": {
        "type": "Point",
        "coordinates": [
          11.4037297,
          46.484485
        ]
      }
    },
    {
      "type": "Feature",
      "properties": {
        "highway": "bus_stop",
        "operator": "SASA",
        "name": "Kampill Center",
        "name:de": "Kampill Center",
        "name:it": "Kampill Center",
        "route_ref": "13"
      },
      "geometry": {
        "type": "Point",
        "coordinates": [
          11.3761931,
          46.4935208
        ]
      }
    },
    {
      "type": "Feature",
      "properties": {
        "highway": "bus_stop",
        "operator": "SASA",
        "name": "Via degli Artigiani - Handwerkerstr.",
        "name:de": "Handwerkerstr.",
        "name:it": "Via degli Artigiani",
        "route_ref": "11"
      },
      "geometry": {
        "type": "Point",
        "coordinates": [
          11.3703311,
          46.4943489
        ]
      }
    },
    {
      "type": "Feature",
      "properties": {
        "highway": "bus_stop",
        "operator": "SASA",
        "name": "Ponte Adige Staz. 2 - Sigmundskron Bhf 2",
        "name:de": "Sigmundskron Bhf 2",
        "name:it": "Ponte Adige Staz. 2",
        "route_ref": "9"
      },
      "geometry": {
        "type": "Point",
        "coordinates": [
          11.2981556,
          46.4857864
        ]
      }
    },
    {
      "type": "Feature",
      "properties": {
        "highway": "bus_stop",
        "operator": "SASA",
        "name": "Ponte Adige Staz. - Sigmundskron Bhf",
        "name:de": "Sigmundskron Bhf",
        "name:it": "Ponte Adige Staz.",
        "route_ref": "9"
      },
      "geometry": {
        "type": "Point",
        "coordinates": [
          11.2967564,
          46.4860019
        ]
      }
    },
    {
      "type": "Feature",
      "properties": {
        "highway": "bus_stop",
        "operator": "SASA",
        "name": "Stazione 1 - Bahnhof 1",
        "name:de": "Bahnhof 1",
        "name:it": "Stazione 1",
        "route_ref": "BZ-ME;2;3;4;5;6;9;10A;11;16;153",
        "shelter": "yes"
      },
      "geometry": {
        "type": "Point",
        "coordinates": [
          11.3579211,
          46.4965261
        ]
      }
    },
    {
      "type": "Feature",
      "properties": {
        "highway": "bus_stop",
        "operator": "SASA",
        "name": "Via Ospedale - Spitalgasse",
        "name:de": "Spitalgasse",
        "name:it": "Via Ospedale",
        "route_ref": "1;2;3;4;5;7B;8;10B;12;14;153"
      },
      "geometry": {
        "type": "Point",
        "coordinates": [
          11.3497611,
          46.4976036
        ]
      }
    },
    {
      "type": "Feature",
      "properties": {
        "highway": "bus_stop",
        "operator": "SASA",
        "name": "Via Duca d'Aosta - Duca d'Aosta Str.",
        "name:de": "Duca d'Aosta Str.",
        "name:it": "Via Duca d'Aosta",
        "route_ref": "5"
      },
      "geometry": {
        "type": "Point",
        "coordinates": [
          11.3366942,
          46.50036
        ]
      }
    },
    {
      "type": "Feature",
      "properties": {
        "highway": "bus_stop",
        "operator": "SASA",
        "name": "Firmiano - Firmian",
        "name:de": "Firmian",
        "name:it": "Firmiano",
        "route_ref": "9",
        "shelter": "yes"
      },
      "geometry": {
        "type": "Point",
        "coordinates": [
          11.3055594,
          46.4906253
        ]
      }
    },
    {
      "type": "Feature",
      "properties": {
        "highway": "bus_stop",
        "operator": "SASA",
        "name": "Firmiano - Firmian",
        "name:de": "Firmian",
        "name:it": "Firmiano",
        "route_ref": "9"
      },
      "geometry": {
        "type": "Point",
        "coordinates": [
          11.3051767,
          46.4903775
        ]
      }
    },
    {
      "type": "Feature",
      "properties": {
        "highway": "bus_stop",
        "operator": "SASA",
        "name": "Via Volta 1 - Volta Str. 1",
        "name:de": "Volta Str. 1",
        "name:it": "Via Volta 1",
        "route_ref": "2"
      },
      "geometry": {
        "type": "Point",
        "coordinates": [
          11.3394175,
          46.4789522
        ]
      }
    },
    {
      "type": "Feature",
      "properties": {
        "highway": "bus_stop",
        "operator": "SASA",
        "name": "Via Volta 1 - Volta Str. 1",
        "name:de": "Volta Str. 1",
        "name:it": "Via Volta 1",
        "route_ref": "2"
      },
      "geometry": {
        "type": "Point",
        "coordinates": [
          11.3393822,
          46.4788608
        ]
      }
    },
    {
      "type": "Feature",
      "properties": {
        "highway": "bus_stop",
        "operator": "SASA",
        "name": "Via Fago 4 - Fagen Str. 4",
        "name:de": "Fagen Str. 4",
        "name:it": "Via Fago 4",
        "route_ref": "153"
      },
      "geometry": {
        "type": "Point",
        "coordinates": [
          11.3371153,
          46.5059867
        ]
      }
    },
    {
      "type": "Feature",
      "properties": {
        "highway": "bus_stop",
        "operator": "SASA",
        "name": "Via Pacinotti 2 - Pacinotti Str. 2",
        "name:de": "Pacinotti Str. 2",
        "name:it": "Via Pacinotti 2",
        "route_ref": "4;6",
        "shelter": "yes"
      },
      "geometry": {
        "type": "Point",
        "coordinates": [
          11.3307519,
          46.4819672
        ]
      }
    },
    {
      "type": "Feature",
      "properties": {
        "highway": "bus_stop",
        "operator": "SASA",
        "name": "Via Sassari 2 - Sassari Str. 2",
        "name:de": "Sassari Str. 2",
        "name:it": "Via Sassari 2",
        "route_ref": "6;9",
        "shelter": "yes"
      },
      "geometry": {
        "type": "Point",
        "coordinates": [
          11.3199217,
          46.4883458
        ]
      }
    },
    {
      "type": "Feature",
      "properties": {
        "highway": "bus_stop",
        "operator": "SASA",
        "name": "Via Sassari 1 - Sassari Str. 1",
        "name:de": "Sassari Str. 1",
        "name:it": "Via Sassari 1",
        "route_ref": "6;9",
        "shelter": "yes"
      },
      "geometry": {
        "type": "Point",
        "coordinates": [
          11.3226728,
          46.4886744
        ]
      }
    },
    {
      "type": "Feature",
      "properties": {
        "highway": "bus_stop",
        "operator": "SASA",
        "name": "Via Sorrento - Sorrent Str.",
        "name:de": "Sorrent Str.",
        "name:it": "Via Sorrento",
        "route_ref": "6;9;16",
        "shelter": "yes"
      },
      "geometry": {
        "type": "Point",
        "coordinates": [
          11.3282978,
          46.4940561
        ]
      }
    },
    {
      "type": "Feature",
      "properties": {
        "highway": "bus_stop",
        "operator": "SASA",
        "name": "Via Sorrento - Sorrent Str.",
        "name:de": "Sorrent Str.",
        "name:it": "Via Sorrento",
        "route_ref": "6;9;16",
        "shelter": "yes"
      },
      "geometry": {
        "type": "Point",
        "coordinates": [
          11.3282569,
          46.4943028
        ]
      }
    },
    {
      "type": "Feature",
      "properties": {
        "highway": "bus_stop",
        "operator": "SASA",
        "name": "Via Montecassino - Montecassino Str.",
        "name:de": "Montecassino Str.",
        "name:it": "Via Montecassino",
        "route_ref": "6;9",
        "shelter": "yes"
      },
      "geometry": {
        "type": "Point",
        "coordinates": [
          11.3254625,
          46.48948
        ]
      }
    },
    {
      "type": "Feature",
      "properties": {
        "highway": "bus_stop",
        "operator": "SASA",
        "name": "Via Del Ronco - Neubruchweg",
        "name:de": "Neubruchweg",
        "name:it": "Via Del Ronco",
        "route_ref": "6;9;16",
        "shelter": "yes"
      },
      "geometry": {
        "type": "Point",
        "coordinates": [
          11.3259661,
          46.49176
        ]
      }
    },
    {
      "type": "Feature",
      "properties": {
        "highway": "bus_stop",
        "operator": "SASA",
        "name": "Via Del Ronco - Neubruchweg",
        "name:de": "Neubruchweg",
        "name:it": "Via Del Ronco",
        "route_ref": "6;9;16",
        "shelter": "yes"
      },
      "geometry": {
        "type": "Point",
        "coordinates": [
          11.3260128,
          46.4921847
        ]
      }
    },
    {
      "type": "Feature",
      "properties": {
        "highway": "bus_stop",
        "operator": "SASA",
        "name": "Passeggiata dei Castani - Koestenweg",
        "name:de": "Koestenweg",
        "name:it": "Passeggiata dei Castani",
        "route_ref": "7B;7A;14",
        "shelter": "yes"
      },
      "geometry": {
        "type": "Point",
        "coordinates": [
          11.3476708,
          46.4813886
        ]
      }
    },
    {
      "type": "Feature",
      "properties": {
        "highway": "bus_stop",
        "operator": "SASA",
        "name": "Via Macello 2 - Schlachthof Str. 2",
        "name:de": "Schlachthof Str. 2",
        "name:it": "Via Macello 2",
        "route_ref": "11;13;14",
        "shelter": "yes"
      },
      "geometry": {
        "type": "Point",
        "coordinates": [
          11.3676558,
          46.4967094
        ]
      }
    },
    {
      "type": "Feature",
      "properties": {
        "highway": "bus_stop",
        "operator": "SASA",
        "name": "Ponte Campiglio - Kampiller Bruecke",
        "name:de": "Kampiller Bruecke",
        "name:it": "Ponte Campiglio",
        "route_ref": "11;13;14",
        "shelter": "yes"
      },
      "geometry": {
        "type": "Point",
        "coordinates": [
          11.3685758,
          46.4932653
        ]
      }
    },
    {
      "type": "Feature",
      "properties": {
        "highway": "bus_stop",
        "operator": "SASA",
        "name": "Via Piani di Mezzo - Mitterweg",
        "name:de": "Mitterweg",
        "name:it": "Via Piani di Mezzo",
        "route_ref": "11",
        "shelter": "yes"
      },
      "geometry": {
        "type": "Point",
        "coordinates": [
          11.3699819,
          46.4953969
        ]
      }
    },
    {
      "type": "Feature",
      "properties": {
        "highway": "bus_stop",
        "operator": "SASA",
        "name": "Via Duca d'Aosta - Duca d'Aosta Str.",
        "name:de": "Duca d'Aosta Str.",
        "name:it": "Via Duca d'Aosta",
        "route_ref": "5",
        "shelter": "yes"
      },
      "geometry": {
        "type": "Point",
        "coordinates": [
          11.3366886,
          46.5001906
        ]
      }
    },
    {
      "type": "Feature",
      "properties": {
        "highway": "bus_stop",
        "operator": "SASA",
        "name": "Via Druso 9 - Drusus Str. 9",
        "name:de": "Drusus Str. 9",
        "name:it": "Via Druso 9",
        "route_ref": "8"
      },
      "geometry": {
        "type": "Point",
        "coordinates": [
          11.3198025,
          46.4943792
        ]
      }
    },
    {
      "type": "Feature",
      "properties": {
        "highway": "bus_stop",
        "operator": "SASA",
        "name": "Via Druso 9 - Drusus Str. 9",
        "name:de": "Drusus Str. 9",
        "name:it": "Via Druso 9",
        "route_ref": "2;6;8",
        "shelter": "yes"
      },
      "geometry": {
        "type": "Point",
        "coordinates": [
          11.3195461,
          46.4944061
        ]
      }
    },
    {
      "type": "Feature",
      "properties": {
        "highway": "bus_stop",
        "operator": "SASA",
        "name": "Via Siemens 2 - Siemens Str. 2",
        "name:de": "Siemens Str. 2",
        "name:it": "Via Siemens 2",
        "route_ref": "6"
      },
      "geometry": {
        "type": "Point",
        "coordinates": [
          11.3302931,
          46.4825122
        ]
      }
    },
    {
      "type": "Feature",
      "properties": {
        "highway": "bus_stop",
        "operator": "SASA",
        "name": "Via Galilei 2 - Galilei Str. 2",
        "name:de": "Galilei Str. 2",
        "name:it": "Via Galilei 2",
        "route_ref": "6"
      },
      "geometry": {
        "type": "Point",
        "coordinates": [
          11.3366586,
          46.4861047
        ]
      }
    },
    {
      "type": "Feature",
      "properties": {
        "highway": "bus_stop",
        "operator": "SASA",
        "name": "Via Galilei 1 - Galilei Str. 1",
        "name:de": "Galilei Str. 1",
        "name:it": "Via Galilei 1",
        "route_ref": "4"
      },
      "geometry": {
        "type": "Point",
        "coordinates": [
          11.3408836,
          46.4869183
        ]
      }
    },
    {
      "type": "Feature",
      "properties": {
        "highway": "bus_stop",
        "operator": "SASA",
        "name": "Via Avogadro - Avogadro Str.",
        "name:de": "Avogadro Str.",
        "name:it": "Via Avogadro",
        "route_ref": "6"
      },
      "geometry": {
        "type": "Point",
        "coordinates": [
          11.3406197,
          46.4852714
        ]
      }
    },
    {
      "type": "Feature",
      "properties": {
        "highway": "bus_stop",
        "operator": "SASA",
        "name": "Funivia S. Genesio - Seilbahn Jenesien",
        "name:de": "Seilbahn Jenesien",
        "name:it": "Funivia S. Genesio",
        "route_ref": "1;12;14",
        "shelter": "yes"
      },
      "geometry": {
        "type": "Point",
        "coordinates": [
          11.3526022,
          46.5141769
        ]
      }
    },
    {
      "type": "Feature",
      "properties": {
        "highway": "bus_stop",
        "operator": "SASA",
        "name": "Via Druso 2 - Drusus Str. 2",
        "name:de": "Drusus Str. 2",
        "name:it": "Via Druso 2",
        "route_ref": "4;6;9;16"
      },
      "geometry": {
        "type": "Point",
        "coordinates": [
          11.3421381,
          46.4947142
        ]
      }
    },
    {
      "type": "Feature",
      "properties": {
        "highway": "bus_stop",
        "operator": "SASA",
        "name": "Via Druso 2 - Drusus Str. 2",
        "name:de": "Drusus Str. 2",
        "name:it": "Via Druso 2",
        "route_ref": "4;6;9;16"
      },
      "geometry": {
        "type": "Point",
        "coordinates": [
          11.3414283,
          46.49488
        ]
      }
    },
    {
      "type": "Feature",
      "properties": {
        "highway": "bus_stop",
        "operator": "SASA",
        "name": "Via Druso 1 - Drusus Str. 1",
        "name:de": "Drusus Str. 1",
        "name:it": "Via Druso 1",
        "route_ref": "4;6;9;16"
      },
      "geometry": {
        "type": "Point",
        "coordinates": [
          11.3441619,
          46.4946175
        ]
      }
    },
    {
      "type": "Feature",
      "properties": {
        "highway": "bus_stop",
        "operator": "SASA",
        "name": "Via Druso 1 - Drusus Str. 1",
        "name:de": "Drusus Str. 1",
        "name:it": "Via Druso 1",
        "route_ref": "4;6;9;16"
      },
      "geometry": {
        "type": "Point",
        "coordinates": [
          11.344745,
          46.4947322
        ]
      }
    },
    {
      "type": "Feature",
      "properties": {
        "highway": "bus_stop",
        "operator": "SASA",
        "name": "Ponte Druso - Drusus Bruecke",
        "name:de": "Drusus Bruecke",
        "name:it": "Ponte Druso",
        "route_ref": "4;6;9;16"
      },
      "geometry": {
        "type": "Point",
        "coordinates": [
          11.3495597,
          46.4949431
        ]
      }
    },
    {
      "type": "Feature",
      "properties": {
        "highway": "bus_stop",
        "operator": "SASA",
        "name": "Ponte Druso - Drusus Bruecke",
        "name:de": "Drusus Bruecke",
        "name:it": "Ponte Druso",
        "route_ref": "4;6;9;16"
      },
      "geometry": {
        "type": "Point",
        "coordinates": [
          11.34705,
          46.4947753
        ]
      }
    },
    {
      "type": "Feature",
      "properties": {
        "highway": "bus_stop",
        "operator": "SASA",
        "name": "Piazza Verdi - Verdi Platz",
        "name:de": "Verdi Platz",
        "name:it": "Piazza Verdi",
        "route_ref": "4;6;9;10A;11;16"
      },
      "geometry": {
        "type": "Point",
        "coordinates": [
          11.3547028,
          46.4949692
        ]
      }
    },
    {
      "type": "Feature",
      "properties": {
        "highway": "bus_stop",
        "operator": "SASA",
        "name": "Piazza Verdi - Verdi Platz",
        "name:de": "Verdi Platz",
        "name:it": "Piazza Verdi",
        "route_ref": "4;6;9;16",
        "shelter": "yes"
      },
      "geometry": {
        "type": "Point",
        "coordinates": [
          11.3533203,
          46.4953839
        ]
      }
    },
    {
      "type": "Feature",
      "properties": {
        "bench": "yes",
        "highway": "bus_stop",
        "operator": "SASA",
        "name": "Castel Roncolo - Schloss Runkelstein",
        "name:de": "Schloss Runkelstein",
        "name:it": "Castel Roncolo",
        "route_ref": "12"
      },
      "geometry": {
        "type": "Point",
        "coordinates": [
          11.3584317,
          46.5155683
        ]
      }
    },
    {
      "type": "Feature",
      "properties": {
        "highway": "bus_stop",
        "operator": "SASA",
        "name": "Via S. Antonio - St. Anton Str.",
        "name:de": "St. Anton Str.",
        "name:it": "Via S. Antonio",
        "route_ref": "12"
      },
      "geometry": {
        "type": "Point",
        "coordinates": [
          11.3541175,
          46.5130519
        ]
      }
    },
    {
      "type": "Feature",
      "properties": {
        "highway": "bus_stop",
        "operator": "SASA",
        "name": "Via Beato Arrigo - Selig - Selig-Heinrich Str.",
        "name:de": "Selig-Heinrich Str.",
        "name:it": "Via Beato Arrigo - Selig",
        "route_ref": "12"
      },
      "geometry": {
        "type": "Point",
        "coordinates": [
          11.3543264,
          46.5074478
        ]
      }
    },
    {
      "type": "Feature",
      "properties": {
        "highway": "bus_stop",
        "operator": "SASA",
        "name": "Via Weggenstein 2 - Weggenstein Str. 2",
        "name:de": "Weggenstein Str. 2",
        "name:it": "Via Weggenstein 2",
        "route_ref": "12"
      },
      "geometry": {
        "type": "Point",
        "coordinates": [
          11.3547244,
          46.5055744
        ]
      }
    },
    {
      "type": "Feature",
      "properties": {
        "highway": "bus_stop",
        "operator": "SASA",
        "name": "Via Weggenstein 1 - Weggenstein Str. 1",
        "name:de": "Weggenstein Str. 1",
        "name:it": "Via Weggenstein 1",
        "route_ref": "12",
        "shelter": "yes"
      },
      "geometry": {
        "type": "Point",
        "coordinates": [
          11.356535,
          46.5035978
        ]
      }
    },
    {
      "type": "Feature",
      "properties": {
        "highway": "bus_stop",
        "operator": "SASA",
        "name": "Via Cavour - Cavour Str.",
        "name:de": "Cavour Str.",
        "name:it": "Via Cavour",
        "route_ref": "12"
      },
      "geometry": {
        "type": "Point",
        "coordinates": [
          11.3597056,
          46.5015631
        ]
      }
    },
    {
      "type": "Feature",
      "properties": {
        "highway": "bus_stop",
        "operator": "SASA",
        "name": "Via Mozart - Mozart Str.",
        "name:de": "Mozart Str.",
        "name:it": "Via Mozart",
        "route_ref": "5;16"
      },
      "geometry": {
        "type": "Point",
        "coordinates": [
          11.3160467,
          46.4891617
        ]
      }
    },
    {
      "type": "Feature",
      "properties": {
        "highway": "bus_stop",
        "operator": "SASA",
        "name": "Via Sordo - Sordo Str.",
        "name:de": "Sordo Str.",
        "name:it": "Via Sordo",
        "route_ref": "5"
      },
      "geometry": {
        "type": "Point",
        "coordinates": [
          11.3149597,
          46.4905283
        ]
      }
    },
    {
      "type": "Feature",
      "properties": {
        "highway": "bus_stop",
        "operator": "SASA",
        "name": "Via A. Emeri 2 - A. Emeri Str. 2",
        "name:de": "A. Emeri Str. 2",
        "name:it": "Via A. Emeri 2",
        "route_ref": "3;16;153"
      },
      "geometry": {
        "type": "Point",
        "coordinates": [
          11.3152519,
          46.4801431
        ]
      }
    },
    {
      "type": "Feature",
      "properties": {
        "highway": "bus_stop",
        "operator": "SASA",
        "name": "Via A. Emeri 1 - A. Emeri Str. 1",
        "name:de": "A. Emeri Str. 1",
        "name:it": "Via A. Emeri 1",
        "route_ref": "3;16;153"
      },
      "geometry": {
        "type": "Point",
        "coordinates": [
          11.316085,
          46.4816039
        ]
      }
    },
    {
      "type": "Feature",
      "properties": {
        "highway": "bus_stop",
        "operator": "SASA",
        "name": "Via A. Emeri 1 - A. Emeri Str. 1",
        "name:de": "A. Emeri Str. 1",
        "name:it": "Via A. Emeri 1",
        "route_ref": "3;16;153"
      },
      "geometry": {
        "type": "Point",
        "coordinates": [
          11.3159797,
          46.4816242
        ]
      }
    },
    {
      "type": "Feature",
      "properties": {
        "highway": "bus_stop",
        "operator": "SASA",
        "name": "Via Ortles - Ortler Str.",
        "name:de": "Ortler Str.",
        "name:it": "Via Ortles",
        "route_ref": "3;16;153"
      },
      "geometry": {
        "type": "Point",
        "coordinates": [
          11.3197475,
          46.4830425
        ]
      }
    },
    {
      "type": "Feature",
      "properties": {
        "highway": "bus_stop",
        "operator": "SASA",
        "name": "Via Ortles - Ortler Str.",
        "name:de": "Ortler Str.",
        "name:it": "Via Ortles",
        "route_ref": "3;16;153"
      },
      "geometry": {
        "type": "Point",
        "coordinates": [
          11.3189747,
          46.4828925
        ]
      }
    },
    {
      "type": "Feature",
      "properties": {
        "bench": "yes",
        "highway": "bus_stop",
        "operator": "SASA",
        "name": "Laives ZI - Leifers IZ",
        "name:de": "Leifers IZ",
        "name:it": "Laives ZI",
        "route_ref": "2;VAD_LAIV"
      },
      "geometry": {
        "type": "Point",
        "coordinates": [
          11.3290997,
          46.4106478
        ]
      }
    },
    {
      "type": "Feature",
      "properties": {
        "highway": "bus_stop",
        "operator": "SASA",
        "name": "Via Druso 4 - Drusus Str. 4",
        "name:de": "Drusus Str. 4",
        "name:it": "Via Druso 4",
        "route_ref": "6;8;9;16"
      },
      "geometry": {
        "type": "Point",
        "coordinates": [
          11.3348222,
          46.4952239
        ]
      }
    },
    {
      "type": "Feature",
      "properties": {
        "highway": "bus_stop",
        "operator": "SASA",
        "name": "Via Druso 4 - Drusus Str. 4",
        "name:de": "Drusus Str. 4",
        "name:it": "Via Druso 4",
        "route_ref": "2;6;8;9;16"
      },
      "geometry": {
        "type": "Point",
        "coordinates": [
          11.3353367,
          46.4953547
        ]
      }
    },
    {
      "type": "Feature",
      "properties": {
        "highway": "bus_stop",
        "operator": "SASA",
        "name": "Via Bari 2 - Bari Str. 2",
        "name:de": "Bari Str. 2",
        "name:it": "Via Bari 2",
        "route_ref": "3",
        "shelter": "yes"
      },
      "geometry": {
        "type": "Point",
        "coordinates": [
          11.3243139,
          46.4864597
        ]
      }
    },
    {
      "type": "Feature",
      "properties": {
        "highway": "bus_stop",
        "operator": "SASA",
        "name": "Via Bari 1 - Bari Str. 1",
        "name:de": "Bari Str. 1",
        "name:it": "Via Bari 1",
        "route_ref": "3",
        "shelter": "yes"
      },
      "geometry": {
        "type": "Point",
        "coordinates": [
          11.3266967,
          46.48775
        ]
      }
    },
    {
      "type": "Feature",
      "properties": {
        "highway": "bus_stop",
        "operator": "SASA",
        "name": "Via Macello 1 - Schlachthof Str. 1",
        "name:de": "Schlachthof Str. 1",
        "name:it": "Via Macello 1",
        "route_ref": "13;14",
        "shelter": "yes"
      },
      "geometry": {
        "type": "Point",
        "coordinates": [
          11.3658342,
          46.4979172
        ]
      }
    },
    {
      "type": "Feature",
      "properties": {
        "highway": "bus_stop",
        "operator": "SASA",
        "name": "Via Macello 1 - Schlachthof Str. 1",
        "name:de": "Schlachthof Str. 1",
        "name:it": "Via Macello 1",
        "route_ref": "11;13;14",
        "shelter": "yes"
      },
      "geometry": {
        "type": "Point",
        "coordinates": [
          11.3653572,
          46.4978992
        ]
      }
    },
    {
      "type": "Feature",
      "properties": {
        "highway": "bus_stop",
        "operator": "SASA",
        "name": "Via Macello 2 - Schlachthof Str. 2",
        "name:de": "Schlachthof Str. 2",
        "name:it": "Via Macello 2",
        "route_ref": "13;14",
        "shelter": "yes"
      },
      "geometry": {
        "type": "Point",
        "coordinates": [
          11.3682675,
          46.4961172
        ]
      }
    },
    {
      "type": "Feature",
      "properties": {
        "highway": "bus_stop",
        "operator": "SASA",
        "name": "Via Macello 3 - Schlachthof Str. 3",
        "name:de": "Schlachthof Str. 3",
        "name:it": "Via Macello 3",
        "route_ref": "13;14",
        "shelter": "yes"
      },
      "geometry": {
        "type": "Point",
        "coordinates": [
          11.3681044,
          46.4953664
        ]
      }
    },
    {
      "type": "Feature",
      "properties": {
        "highway": "bus_stop",
        "operator": "SASA",
        "name": "Ponte Campiglio - Kampiller Bruecke",
        "name:de": "Kampiller Bruecke",
        "name:it": "Ponte Campiglio",
        "route_ref": "13;14"
      },
      "geometry": {
        "type": "Point",
        "coordinates": [
          11.3689667,
          46.4923642
        ]
      }
    },
    {
      "type": "Feature",
      "properties": {
        "highway": "bus_stop",
        "operator": "SASA",
        "name": "Funivia del Colle - Kohlern Seilbahn",
        "name:de": "Kohlern Seilbahn",
        "name:it": "Funivia del Colle",
        "route_ref": "13"
      },
      "geometry": {
        "type": "Point",
        "coordinates": [
          11.368435,
          46.4910761
        ]
      }
    },
    {
      "type": "Feature",
      "properties": {
        "highway": "bus_stop",
        "operator": "SASA",
        "name": "Via Macello 4 - Schlachthof Str. 4",
        "name:de": "Schlachthof Str. 4",
        "name:it": "Via Macello 4",
        "route_ref": "11"
      },
      "geometry": {
        "type": "Point",
        "coordinates": [
          11.3630911,
          46.4932219
        ]
      }
    },
    {
      "type": "Feature",
      "properties": {
        "highway": "bus_stop",
        "operator": "SASA",
        "name": "Via Macello 5 - Schlachthof Str. 5",
        "name:de": "Schlachthof Str. 5",
        "name:it": "Via Macello 5",
        "route_ref": "11"
      },
      "geometry": {
        "type": "Point",
        "coordinates": [
          11.3606344,
          46.4937672
        ]
      }
    },
    {
      "type": "Feature",
      "properties": {
        "highway": "bus_stop",
        "operator": "SASA",
        "name": "Via Macello 6 - Schlachthof Str. 6",
        "name:de": "Schlachthof Str. 6",
        "name:it": "Via Macello 6",
        "route_ref": "11"
      },
      "geometry": {
        "type": "Point",
        "coordinates": [
          11.3578706,
          46.4949133
        ]
      }
    },
    {
      "type": "Feature",
      "properties": {
        "highway": "bus_stop",
        "operator": "SASA",
        "name": "Via Macello 7 - Schlachthof Str. 7",
        "name:de": "Schlachthof Str. 7",
        "name:it": "Via Macello 7",
        "route_ref": "11"
      },
      "geometry": {
        "type": "Point",
        "coordinates": [
          11.3560103,
          46.4945194
        ]
      }
    },
    {
      "type": "Feature",
      "properties": {
        "highway": "bus_stop",
        "operator": "SASA",
        "name": "Via Castel Flavon - Kuepachweg",
        "name:de": "Kuepachweg",
        "name:it": "Via Castel Flavon",
        "route_ref": "7B;7A;14"
      },
      "geometry": {
        "type": "Point",
        "coordinates": [
          11.3493208,
          46.4835186
        ]
      }
    },
    {
      "type": "Feature",
      "properties": {
        "highway": "bus_stop",
        "operator": "SASA",
        "name": "Via Lancia - Lancia Str.",
        "name:de": "Lancia Str.",
        "name:it": "Via Lancia",
        "route_ref": "4"
      },
      "geometry": {
        "type": "Point",
        "coordinates": [
          11.3369739,
          46.4849483
        ]
      }
    },
    {
      "type": "Feature",
      "properties": {
        "highway": "bus_stop",
        "operator": "SASA",
        "name": "Via Roma 3 - Romstr. 3",
        "name:de": "Romstr. 3",
        "name:it": "Via Roma 3",
        "route_ref": "2;4;7B",
        "shelter": "yes"
      },
      "geometry": {
        "type": "Point",
        "coordinates": [
          11.34217,
          46.4905081
        ]
      }
    },
    {
      "type": "Feature",
      "properties": {
        "highway": "bus_stop",
        "operator": "SASA",
        "name": "Via Lancia - Lancia Str.",
        "name:de": "Lancia Str.",
        "name:it": "Via Lancia",
        "route_ref": "4",
        "shelter": "yes"
      },
      "geometry": {
        "type": "Point",
        "coordinates": [
          11.3366994,
          46.4842161
        ]
      }
    },
    {
      "type": "Feature",
      "properties": {
        "highway": "bus_stop",
        "operator": "SASA",
        "name": "Via Siemens 1 - Siemens Str. 1",
        "name:de": "Siemens Str. 1",
        "name:it": "Via Siemens 1",
        "route_ref": "4"
      },
      "geometry": {
        "type": "Point",
        "coordinates": [
          11.3326667,
          46.48278
        ]
      }
    },
    {
      "type": "Feature",
      "properties": {
        "highway": "bus_stop",
        "operator": "SASA",
        "name": "Via Siemens 1 - Siemens Str. 1",
        "name:de": "Siemens Str. 1",
        "name:it": "Via Siemens 1",
        "route_ref": "4;6",
        "shelter": "yes"
      },
      "geometry": {
        "type": "Point",
        "coordinates": [
          11.3346317,
          46.4830753
        ]
      }
    },
    {
      "type": "Feature",
      "properties": {
        "highway": "bus_stop",
        "operator": "SASA",
        "name": "Via Pacinotti 2 - Pacinotti Str. 2",
        "name:de": "Pacinotti Str. 2",
        "name:it": "Via Pacinotti 2",
        "route_ref": "4",
        "shelter": "yes"
      },
      "geometry": {
        "type": "Point",
        "coordinates": [
          11.3299478,
          46.4804972
        ]
      }
    },
    {
      "type": "Feature",
      "properties": {
        "highway": "bus_stop",
        "operator": "SASA",
        "name": "Via Volta 2 - Volta Str. 2",
        "name:de": "Volta Str. 2",
        "name:it": "Via Volta 2",
        "route_ref": "2;4"
      },
      "geometry": {
        "type": "Point",
        "coordinates": [
          11.3322636,
          46.4795347
        ]
      }
    },
    {
      "type": "Feature",
      "properties": {
        "highway": "bus_stop",
        "operator": "SASA",
        "name": "Via Volta 2 - Volta Str. 2",
        "name:de": "Volta Str. 2",
        "name:it": "Via Volta 2",
        "route_ref": "2"
      },
      "geometry": {
        "type": "Point",
        "coordinates": [
          11.3338036,
          46.4791797
        ]
      }
    },
    {
      "type": "Feature",
      "properties": {
        "highway": "bus_stop",
        "operator": "SASA",
        "name": "Via Volta 5 - Volta Str. 5",
        "name:de": "Volta Str. 5",
        "name:it": "Via Volta 5",
        "route_ref": "6;10B"
      },
      "geometry": {
        "type": "Point",
        "coordinates": [
          11.3252753,
          46.4806683
        ]
      }
    },
    {
      "type": "Feature",
      "properties": {
        "highway": "bus_stop",
        "operator": "SASA",
        "name": "Via Volta 5 - Volta Str. 5",
        "name:de": "Volta Str. 5",
        "name:it": "Via Volta 5",
        "route_ref": "6;10A",
        "shelter": "yes"
      },
      "geometry": {
        "type": "Point",
        "coordinates": [
          11.3254411,
          46.4805692
        ]
      }
    },
    {
      "type": "Feature",
      "properties": {
        "highway": "bus_stop",
        "operator": "SASA",
        "name": "Via Sarentino 1 - Sarntaler Str. 1",
        "name:de": "Sarntaler Str. 1",
        "name:it": "Via Sarentino 1",
        "route_ref": "1;12;14",
        "shelter": "yes"
      },
      "geometry": {
        "type": "Point",
        "coordinates": [
          11.3499211,
          46.5123692
        ]
      }
    },
    {
      "type": "Feature",
      "properties": {
        "highway": "bus_stop",
        "operator": "SASA",
        "name": "Via Sarentino 1 - Sarntaler Str. 1",
        "name:de": "Sarntaler Str. 1",
        "name:it": "Via Sarentino 1",
        "route_ref": "1;14"
      },
      "geometry": {
        "type": "Point",
        "coordinates": [
          11.3501444,
          46.5124794
        ]
      }
    },
    {
      "type": "Feature",
      "properties": {
        "highway": "bus_stop",
        "operator": "SASA",
        "name": "Via Sarentino 2 - Sarntaler Str. 2",
        "name:de": "Sarntaler Str. 2",
        "name:it": "Via Sarentino 2",
        "route_ref": "1;12;14",
        "shelter": "yes"
      },
      "geometry": {
        "type": "Point",
        "coordinates": [
          11.3477025,
          46.5099431
        ]
      }
    },
    {
      "type": "Feature",
      "properties": {
        "highway": "bus_stop",
        "operator": "SASA",
        "name": "Via Sarentino 2 - Sarntaler Str. 2",
        "name:de": "Sarntaler Str. 2",
        "name:it": "Via Sarentino 2",
        "route_ref": "1;14"
      },
      "geometry": {
        "type": "Point",
        "coordinates": [
          11.3477892,
          46.5099592
        ]
      }
    },
    {
      "type": "Feature",
      "properties": {
        "highway": "bus_stop",
        "operator": "SASA",
        "name": "Via Parma 1 - Parma Str. 1",
        "name:de": "Parma Str. 1",
        "name:it": "Via Parma 1",
        "route_ref": "16;153"
      },
      "geometry": {
        "type": "Point",
        "coordinates": [
          11.3203753,
          46.4901075
        ]
      }
    },
    {
      "type": "Feature",
      "properties": {
        "highway": "bus_stop",
        "operator": "SASA",
        "name": "Via Sassari 2 - Sassari Str. 2",
        "name:de": "Sassari Str. 2",
        "name:it": "Via Sassari 2",
        "route_ref": "6;9;153"
      },
      "geometry": {
        "type": "Point",
        "coordinates": [
          11.3195039,
          46.4883006
        ]
      }
    },
    {
      "type": "Feature",
      "properties": {
        "highway": "bus_stop",
        "operator": "SASA",
        "name": "Via Parma 2 - Parmastr. 2",
        "name:de": "Parmastr. 2",
        "name:it": "Via Parma 2",
        "route_ref": "16"
      },
      "geometry": {
        "type": "Point",
        "coordinates": [
          11.32167,
          46.4871456
        ]
      }
    },
    {
      "type": "Feature",
      "properties": {
        "highway": "bus_stop",
        "operator": "SASA",
        "name": "Via Sassari 1 - Sassari Str. 1",
        "name:de": "Sassari Str. 1",
        "name:it": "Via Sassari 1",
        "route_ref": "6;9",
        "shelter": "yes"
      },
      "geometry": {
        "type": "Point",
        "coordinates": [
          11.3229122,
          46.4887556
        ]
      }
    },
    {
      "type": "Feature",
      "properties": {
        "highway": "bus_stop",
        "operator": "SASA",
        "name": "Via Cagliari - Cagliari Str.",
        "name:de": "Cagliari Str.",
        "name:it": "Via Cagliari",
        "route_ref": "3",
        "shelter": "yes"
      },
      "geometry": {
        "type": "Point",
        "coordinates": [
          11.3295931,
          46.4883331
        ]
      }
    },
    {
      "type": "Feature",
      "properties": {
        "highway": "bus_stop",
        "operator": "SASA",
        "name": "Via Palermo 3 - Palermo Str. 3",
        "name:de": "Palermo Str. 3",
        "name:it": "Via Palermo 3",
        "route_ref": "3",
        "shelter": "yes"
      },
      "geometry": {
        "type": "Point",
        "coordinates": [
          11.3315147,
          46.4889533
        ]
      }
    },
    {
      "type": "Feature",
      "properties": {
        "highway": "bus_stop",
        "operator": "SASA",
        "name": "Via Palermo 2 - Palermo Str. 2",
        "name:de": "Palermo Str. 2",
        "name:it": "Via Palermo 2",
        "route_ref": "3"
      },
      "geometry": {
        "type": "Point",
        "coordinates": [
          11.3325158,
          46.4918986
        ]
      }
    },
    {
      "type": "Feature",
      "properties": {
        "highway": "bus_stop",
        "operator": "SASA",
        "name": "Via Dalmazia 2 - Dalmatien Str. 2",
        "name:de": "Dalmatien Str. 2",
        "name:it": "Via Dalmazia 2",
        "route_ref": "3;153",
        "shelter": "yes"
      },
      "geometry": {
        "type": "Point",
        "coordinates": [
          11.3366072,
          46.4916644
        ]
      }
    },
    {
      "type": "Feature",
      "properties": {
        "highway": "bus_stop",
        "operator": "SASA",
        "name": "Via Dalmazia 1 - Dalmatien Str. 1",
        "name:de": "Dalmatien Str. 1",
        "name:it": "Via Dalmazia 1",
        "route_ref": "3;153"
      },
      "geometry": {
        "type": "Point",
        "coordinates": [
          11.3409383,
          46.4921158
        ]
      }
    },
    {
      "type": "Feature",
      "properties": {
        "highway": "bus_stop",
        "operator": "SASA",
        "name": "Via Torino - Turin Str.",
        "name:de": "Turin Str.",
        "name:it": "Via Torino",
        "route_ref": "3;153",
        "shelter": "yes"
      },
      "geometry": {
        "type": "Point",
        "coordinates": [
          11.3395978,
          46.4912336
        ]
      }
    },
    {
      "type": "Feature",
      "properties": {
        "highway": "bus_stop",
        "operator": "SASA",
        "name": "Piazza Matteotti - Matteotti Platz",
        "name:de": "Matteotti Platz",
        "name:it": "Piazza Matteotti",
        "route_ref": "3;153",
        "shelter": "yes"
      },
      "geometry": {
        "type": "Point",
        "coordinates": [
          11.3369128,
          46.4902819
        ]
      }
    },
    {
      "type": "Feature",
      "properties": {
        "highway": "bus_stop",
        "operator": "SASA",
        "name": "Via Milano 1 - Mailand Str. 1",
        "name:de": "Mailand Str. 1",
        "name:it": "Via Milano 1",
        "route_ref": "3;153",
        "shelter": "yes"
      },
      "geometry": {
        "type": "Point",
        "coordinates": [
          11.3325086,
          46.4895775
        ]
      }
    },
    {
      "type": "Feature",
      "properties": {
        "highway": "bus_stop",
        "operator": "SASA",
        "name": "Via Milano 2 - Mailand Str. 2",
        "name:de": "Mailand Str. 2",
        "name:it": "Via Milano 2",
        "route_ref": "3;153",
        "shelter": "yes"
      },
      "geometry": {
        "type": "Point",
        "coordinates": [
          11.329665,
          46.48988
        ]
      }
    },
    {
      "type": "Feature",
      "properties": {
        "highway": "bus_stop",
        "operator": "SASA",
        "name": "Via Milano 3 - Mailand Str. 3",
        "name:de": "Mailand Str. 3",
        "name:it": "Via Milano 3",
        "route_ref": "3;153",
        "shelter": "yes"
      },
      "geometry": {
        "type": "Point",
        "coordinates": [
          11.3267147,
          46.4902128
        ]
      }
    },
    {
      "type": "Feature",
      "properties": {
        "highway": "bus_stop",
        "operator": "SASA",
        "name": "Via Montecassino - Montecassino Str.",
        "name:de": "Montecassino Str.",
        "name:it": "Via Montecassino",
        "route_ref": "3;6;9;153",
        "shelter": "yes"
      },
      "geometry": {
        "type": "Point",
        "coordinates": [
          11.3254733,
          46.4892094
        ]
      }
    },
    {
      "type": "Feature",
      "properties": {
        "highway": "bus_stop",
        "operator": "SASA",
        "name": "Via Bari 1 - Bari Str. 1",
        "name:de": "Bari Str. 1",
        "name:it": "Via Bari 1",
        "route_ref": "3;153",
        "shelter": "yes"
      },
      "geometry": {
        "type": "Point",
        "coordinates": [
          11.3269025,
          46.4878317
        ]
      }
    },
    {
      "type": "Feature",
      "properties": {
        "highway": "bus_stop",
        "operator": "SASA",
        "name": "Via Bari 2 - Bari Str. 2",
        "name:de": "Bari Str. 2",
        "name:it": "Via Bari 2",
        "route_ref": "3;153",
        "shelter": "yes"
      },
      "geometry": {
        "type": "Point",
        "coordinates": [
          11.3245022,
          46.4865031
        ]
      }
    },
    {
      "type": "Feature",
      "properties": {
        "highway": "bus_stop",
        "operator": "SASA",
        "name": "Via Bari 3 - Bari Str. 3",
        "name:de": "Bari Str. 3",
        "name:it": "Via Bari 3",
        "route_ref": "3;16",
        "shelter": "yes"
      },
      "geometry": {
        "type": "Point",
        "coordinates": [
          11.3220608,
          46.4856061
        ]
      }
    },
    {
      "type": "Feature",
      "properties": {
        "highway": "bus_stop",
        "operator": "SASA",
        "name": "Via Bari 4 - Bari Str. 4",
        "name:de": "Bari Str. 4",
        "name:it": "Via Bari 4",
        "route_ref": "3;16",
        "shelter": "yes"
      },
      "geometry": {
        "type": "Point",
        "coordinates": [
          11.3206917,
          46.4851867
        ]
      }
    },
    {
      "type": "Feature",
      "properties": {
        "highway": "bus_stop",
        "operator": "SASA",
        "name": "Via Bari 4 - Bari Str. 4",
        "name:de": "Bari Str. 4",
        "name:it": "Via Bari 4",
        "route_ref": "3;153",
        "shelter": "yes"
      },
      "geometry": {
        "type": "Point",
        "coordinates": [
          11.3207119,
          46.4851614
        ]
      }
    },
    {
      "type": "Feature",
      "properties": {
        "highway": "bus_stop",
        "operator": "SASA",
        "name": "Via Galvani 1 - Galvani Str. 1",
        "name:de": "Galvani Str. 1",
        "name:it": "Via Galvani 1",
        "route_ref": "2;4;6",
        "shelter": "yes"
      },
      "geometry": {
        "type": "Point",
        "coordinates": [
          11.3342414,
          46.4788922
        ]
      }
    },
    {
      "type": "Feature",
      "properties": {
        "highway": "bus_stop",
        "operator": "SASA",
        "name": "Via Galvani 2 - Galvani Str. 2",
        "name:de": "Galvani Str. 2",
        "name:it": "Via Galvani 2",
        "route_ref": "2;4;6"
      },
      "geometry": {
        "type": "Point",
        "coordinates": [
          11.3325633,
          46.4755853
        ]
      }
    },
    {
      "type": "Feature",
      "properties": {
        "highway": "bus_stop",
        "operator": "SASA",
        "name": "Via Galvani 2 - Galvani Str. 2",
        "name:de": "Galvani Str. 2",
        "name:it": "Via Galvani 2",
        "route_ref": "2;4;6"
      },
      "geometry": {
        "type": "Point",
        "coordinates": [
          11.3324608,
          46.4752531
        ]
      }
    },
    {
      "type": "Feature",
      "properties": {
        "highway": "bus_stop",
        "operator": "SASA",
        "name": "Via Galvani 3 - Galvani Str. 3",
        "name:de": "Galvani Str. 3",
        "name:it": "Via Galvani 3",
        "route_ref": "2;4"
      },
      "geometry": {
        "type": "Point",
        "coordinates": [
          11.3313006,
          46.4730378
        ]
      }
    },
    {
      "type": "Feature",
      "properties": {
        "highway": "bus_stop",
        "operator": "SASA",
        "name": "Via Galvani 3 - Galvani Str. 3",
        "name:de": "Galvani Str. 3",
        "name:it": "Via Galvani 3",
        "route_ref": "2;4;6"
      },
      "geometry": {
        "type": "Point",
        "coordinates": [
          11.3313286,
          46.4728317
        ]
      }
    },
    {
      "type": "Feature",
      "properties": {
        "highway": "bus_stop",
        "operator": "SASA",
        "name": "Via Galvani 4 - Galvani Str. 4",
        "name:de": "Galvani Str. 4",
        "name:it": "Via Galvani 4",
        "route_ref": "2;4",
        "shelter": "yes"
      },
      "geometry": {
        "type": "Point",
        "coordinates": [
          11.3295906,
          46.4693444
        ]
      }
    },
    {
      "type": "Feature",
      "properties": {
        "highway": "bus_stop",
        "operator": "SASA",
        "name": "Via Galvani 4 - Galvani Str. 4",
        "name:de": "Galvani Str. 4",
        "name:it": "Via Galvani 4",
        "route_ref": "2;4",
        "shelter": "yes"
      },
      "geometry": {
        "type": "Point",
        "coordinates": [
          11.3297283,
          46.4693136
        ]
      }
    },
    {
      "type": "Feature",
      "properties": {
        "highway": "bus_stop",
        "operator": "SASA",
        "name": "Via Einstein 3 - Einstein Str. 3",
        "name:de": "Einstein Str. 3",
        "name:it": "Via Einstein 3",
        "route_ref": "2;4;10B",
        "shelter": "yes"
      },
      "geometry": {
        "type": "Point",
        "coordinates": [
          11.3311767,
          46.4672778
        ]
      }
    },
    {
      "type": "Feature",
      "properties": {
        "highway": "bus_stop",
        "operator": "SASA",
        "name": "Via Einstein 3 - Einstein Str. 3",
        "name:de": "Einstein Str. 3",
        "name:it": "Via Einstein 3",
        "route_ref": "2;4;10A",
        "shelter": "yes"
      },
      "geometry": {
        "type": "Point",
        "coordinates": [
          11.3307583,
          46.4672522
        ]
      }
    },
    {
      "type": "Feature",
      "properties": {
        "highway": "bus_stop",
        "operator": "SASA",
        "name": "Via Einstein 2 - Einstein Str. 2",
        "name:de": "Einstein Str. 2",
        "name:it": "Via Einstein 2",
        "route_ref": "10B",
        "shelter": "yes"
      },
      "geometry": {
        "type": "Point",
        "coordinates": [
          11.3275608,
          46.4685933
        ]
      }
    },
    {
      "type": "Feature",
      "properties": {
        "highway": "bus_stop",
        "operator": "SASA",
        "name": "Via Einstein 2 - Einstein Str. 2",
        "name:de": "Einstein Str. 2",
        "name:it": "Via Einstein 2",
        "route_ref": "10A",
        "shelter": "yes"
      },
      "geometry": {
        "type": "Point",
        "coordinates": [
          11.3265617,
          46.4684978
        ]
      }
    },
    {
      "type": "Feature",
      "properties": {
        "highway": "bus_stop",
        "operator": "SASA",
        "name": "Via Buozzi 3 - Buozzi Str. 3",
        "name:de": "Buozzi Str. 3",
        "name:it": "Via Buozzi 3",
        "route_ref": "10B",
        "shelter": "yes"
      },
      "geometry": {
        "type": "Point",
        "coordinates": [
          11.3233531,
          46.469665
        ]
      }
    },
    {
      "type": "Feature",
      "properties": {
        "highway": "bus_stop",
        "operator": "SASA",
        "name": "Via Buozzi 3 - Buozzi Str. 3",
        "name:de": "Buozzi Str. 3",
        "name:it": "Via Buozzi 3",
        "route_ref": "10A",
        "shelter": "yes"
      },
      "geometry": {
        "type": "Point",
        "coordinates": [
          11.3232006,
          46.4697481
        ]
      }
    },
    {
      "type": "Feature",
      "properties": {
        "highway": "bus_stop",
        "operator": "SASA",
        "name": "Fiera - Messe",
        "name:de": "Messe",
        "name:it": "Fiera",
        "route_ref": "10B",
        "shelter": "yes"
      },
      "geometry": {
        "type": "Point",
        "coordinates": [
          11.3256778,
          46.4735336
        ]
      }
    },
    {
      "type": "Feature",
      "properties": {
        "highway": "bus_stop",
        "operator": "SASA",
        "name": "Fiera - Messe",
        "name:de": "Messe",
        "name:it": "Fiera",
        "route_ref": "10A",
        "shelter": "yes"
      },
      "geometry": {
        "type": "Point",
        "coordinates": [
          11.3255742,
          46.4735594
        ]
      }
    },
    {
      "type": "Feature",
      "properties": {
        "highway": "bus_stop",
        "operator": "SASA",
        "name": "Via Buozzi 2 - Buozzi Str. 2",
        "name:de": "Buozzi Str. 2",
        "name:it": "Via Buozzi 2",
        "route_ref": "10B",
        "shelter": "yes"
      },
      "geometry": {
        "type": "Point",
        "coordinates": [
          11.3273411,
          46.4762539
        ]
      }
    },